$GPGGA,120458,4907.401,N,12311.318,W,2,05,1.80,4,M,,,,*29
$GPGLL,4907.401,N,12311.318,W,120458,A*37
$GPVTG,197,T,197,M,00.8,N,01.4,K*43
$GPZDA,120458,30,06,2000,07,00*42
$GPGGA,120500,4907.401,N,12311.318,W,2,05,1.80,4,M,,,,*25
$GPGLL,4907.401,N,12311.318,W,120500,A*3B
$GPVTG,215,T,215,M,00.4,N,00.7,K*4D
$GPZDA,120500,30,06,2000,07,00*4E
$GPGGA,120502,4907.401,N,12311.318,W,2,05,1.80,4,M,,,,*27
$GPGLL,4907.401,N,123
ENSEMBLE  1718 PCTIME 1830562
11.318,W,120502,A*39
$GPVTG,321,T,321,M,00.2,N,00.3,K*4F
$GPZDA,120502,30,06,2000,07,00*4C
$GPGGA,120504,4907.401,N,12311.318,W,2,05,1.80,4,M,,,,*21
$GPGLL,4907.401,N,12311.318,W,120504,A*3F
$GPVTG,355,T,355,M,00.4,N,00.7,K*4D
$GPZDA,120504,30,06,2000,07,00*4A
$GPGGA,120506,4907.401,N,12311.318,W,2,05,1.80,4,M,,,,*23
$GPGLL,4907.401,N,12311.318,W,120506,A*3D
$GPVTG,005,T,005,M,00.7,N,01.2,K*4A
$GPZDA,120506,30,06,2000,07,00*48
$GPGGA,120508,4907.401,N,12311.318,W,2,05,1.80,4,M,,,,*2D
$GPGLL,4907.401,N,12311.318,W,120508,A*33
$GPVTG,013,T,013,M,00.9,N,01.6,K*40
$GPZDA,120508,30,06,2000,07,00*46
$GPGGA,120510,4907.401,N,12311.318,W,2,05,1.80,4,M,,,,*24
$GPGLL,4907.401,N,12311.318,W,120510,A*3A
$GPVTG,006,T,006,M,01.0,N,01.8,K*46
$GPZDA,120510,30,06,2000,07,00*4F

ENSEMBLE  1719 PCTIME 1831457
$GPGGA,120512,4907.401,N,12311.318,W,2,05,1.80,4,M,,,,*26
$GPGLL,4907.401,N,12311.318,W,120512,A*38
$GPVTG,001,T,001,M,00.7,N,01.2,K*4A
$GPZDA,120512,30,06,2000,07,00*4D
$GPGGA,120514,4907.401,N,12311.318,W,2,05,1.80,4,M,,,,*20
$GPGLL,4907.401,N,12311.318,W,120514,A*3E
$GPVTG,337,T,337,M,00.4,N,00.7,K*4D
$GPZDA,120514,30,06,2000,07,00*4B
$GPGGA,120516,4907.401,N,12311.318,W,2,05,1.80,4,M,,,,*22
$GPGLL,4907.401,N,12311.318,W,120516,A*3C
$GPVTG,228,T,228,M,00.2,N,00.3,K*4F
$GPZDA,120516,30,06,2000,07,00*49
$GPGGA,120518,4907.401,N,12311.318,W,2,05,1.80,4,M,,,,*2C
$GPGLL,4907.401,N,12311.318,W,120518,A*32
$GPVTG,223,T,223,M,00.4,N,00.7,K*4D
$GPZDA,120518,30,06,2000,07,00*47
$GPGGA,120520,4907.401,N,12311.318,W,2,05,1.80,4,M,,,,*27
$GPGLL,4907.401,N,12311.318,W,120520,A*39
ENSEMBLE  1720 PCTIME 1832363

$GPVTG,213,T,213,M,00.7,N,01.2,K*4A
$GPZDA,120520,30,06,2000,07,00*4C
$GPGGA,120522,4907.401,N,12311.318,W,2,05,1.80,4,M,,,,*25
$GPGLL,4907.401,N,12311.318,W,120522,A*3B
$GPVTG,218,T,218,M,01.0,N,01.8,K*46
$GPZDA,120522,30,06,2000,07,00*4E
$GPGGA,120524,4907.401,N,12311.319,W,2,05,1.80,3,M,,,,*25
$GPGLL,4907.401,N,12311.319,W,120524,A*3C
$GPVTG,225,T,225,M,01.2,N,02.2,K*4D
$GPZDA,120524,30,06,2000,07,00*48
$GPGGA,120526,4907.400,N,12311.320,W,2,05,1.80,3,M,,,,*2C
$GPGLL,4907.400,N,12311.320,W,120526,A*35
$GPVTG,225,T,225,M,01.5,N,02.7,K*4F
$GPZDA,120526,30,06,2000,07,00*4A
$GPGGA,120528,4907.400,N,12311.321,W,2,05,1.80,3,M,,,,*23
$GPGLL,4907.400,N,12311.321,W,120528,A*3A
$GPVTG,229,T,229,M,01.7,N,03.1,K*4A
$GPZDA,120528,30,06,2000,07,00*44

ENSEMBLE  1721 PCTIME 1833270
$GPGGA,120530,4907.399,N,12311.322,W,2,05,1.80,3,M,,,,*2E
$GPGLL,4907.399,N,12311.322,W,120530,A*37
$GPVTG,235,T,235,M,01.8,N,03.3,K*47
$GPZDA,120530,30,06,2000,07,00*4D
$GPGGA,120532,4907.398,N,12311.324,W,2,05,1.80,3,M,,,,*2B
$GPGLL,4907.398,N,12311.324,W,120532,A*32
$GPVTG,235,T,235,M,02.1,N,03.8,K*46
$GPZDA,120532,30,06,2000,07,00*4F
$GPGGA,120534,4907.398,N,12311.325,W,2,05,1.80,3,M,,,,*2C
$GPGLL,4907.398,N,12311.325,W,120534,A*35
$GPVTG,242,T,242,M,02.3,N,04.2,K*49
$GPZDA,120534,30,06,2000,07,00*49
$GPGGA,120536,4907.397,N,12311.327,W,2,05,1.80,3,M,,,,*23
$GPGLL,4907.397,N,12311.327,W,120536,A*3A
$GPVTG,245,T,245,M,02.5,N,04.6,K*4B
$GPZDA,120536,30,06,2000,07,00*4B
$GPGGA,120538,4907.397,N,12311.330,W,2,05,1.80,3,M,,,,*2B
$GPGLL,4907.397,N,12311.330,W,120538,A*32
$GPVTG,254,T,254,M,02.7,N,05.0,K*4E
$GPZ
ENSEMBLE  1722 PCTIME 1834170
DA,120538,30,06,2000,07,00*45
$GPGGA,120540,4907.397,N,12311.332,W,2,05,1.80,3,M,,,,*26
$GPGLL,4907.397,N,12311.332,W,120540,A*3F
$GPVTG,263,T,263,M,02.7,N,05.0,K*4E
$GPZDA,120540,30,06,2000,07,00*4A
$GPGGA,120542,4907.397,N,12311.334,W,2,05,1.80,3,M,,,,*22
$GPGLL,4907.397,N,12311.334,W,120542,A*3B
$GPVTG,268,T,268,M,02.7,N,05.0,K*4E
$GPZDA,120542,30,06,2000,07,00*48
$GPGGA,120544,4907.397,N,12311.336,W,2,05,1.80,3,M,,,,*26
$GPGLL,4907.397,N,12311.336,W,120544,A*3F
$GPVTG,271,T,271,M,02.6,N,04.8,K*46
$GPZDA,120544,30,06,2000,07,00*4E
$GPGGA,120546,4907.397,N,12311.339,W,2,05,1.80,3,M,,,,*2B
$GPGLL,4907.397,N,12311.339,W,120546,A*32
$GPVTG,272,T,272,M,02.6,N,04.8,K*46
$GPZDA,120546,30,06,2000,07,00*4C

ENSEMBLE  1723 PCTIME 1835088
$GPGGA,120548,4907.397,N,12311.341,W,2,05,1.80,3,M,,,,*2A
$GPGLL,4907.397,N,12311.341,W,120548,A*33
$GPVTG,275,T,275,M,02.5,N,04.6,K*4B
$GPZDA,120548,30,06,2000,07,00*42
$GPGGA,120550,4907.397,N,12311.343,W,2,05,1.80,3,M,,,,*21
$GPGLL,4907.397,N,12311.343,W,120550,A*38
$GPVTG,277,T,277,M,02.5,N,04.6,K*4B
$GPZDA,120550,30,06,2000,07,00*4B
$GPGGA,120552,4907.398,N,12311.345,W,2,05,1.80,3,M,,,,*2A
$GPGLL,4907.398,N,12311.345,W,120552,A*33
$GPVTG,276,T,276,M,02.4,N,04.4,K*48
$GPZDA,120552,30,06,2000,07,00*49
$GPGGA,120554,4907.398,N,12311.347,W,2,05,1.80,3,M,,,,*2E
$GPGLL,4907.398,N,12311.347,W,120554,A*37
$GPVTG,278,T,278,M,02.4,N,04.4,K*48
$GPZDA,120554,30,06,2000,07,00*4F
$GPGGA,120556,4907.398,N,12311.349,W,2,05,1.80,3,M,,,,*22
$GPGLL,4907.398,N,12311.349,W,120556,A*3B
$GPVTG,278,T,278,M,02.3,N,04.2,K*49
$GPZDA,120556,30,06,2000,07,00*4D

ENSEMBLE  1724 PCTIME 1835994
$GPGGA,120558,4907.398,N,12311.351,W,2,05,1.80,3,M,,,,*25
$GPGLL,4907.398,N,12311.351,W,120558,A*3C
$GPVTG,279,T,279,M,02.3,N,04.2,K*49
$GPZDA,120558,30,06,2000,07,00*43
$GPGGA,120600,4907.399,N,12311.352,W,2,05,1.80,3,M,,,,*29
$GPGLL,4907.399,N,12311.352,W,120600,A*30
$GPVTG,280,T,280,M,02.3,N,04.2,K*49
$GPZDA,120600,30,06,2000,07,00*4D
$GPGGA,120602,4907.399,N,12311.354,W,2,05,1.80,3,M,,,,*2D
$GPGLL,4907.399,N,12311.354,W,120602,A*34
$GPVTG,279,T,279,M,02.3,N,04.2,K*49
$GPZDA,120602,30,06,2000,07,00*4F
$GPGGA,120604,4907.399,N,12311.357,W,2,05,1.80,3,M,,,,*28
$GPGLL,4907.399,N,12311.357,W,120604,A*31
$GPVTG,282,T,282,M,02.5,N,04.6,K*4B
$GPZDA,120604,30,06,2000,07,00*49

ENSEMBLE  1725 PCTIME 1836906
$GPGGA,120606,4907.400,N,12311.359,W,2,05,1.80,4,M,,,,*24
$GPGLL,4907.400,N,12311.359,W,120606,A*3A
$GPVTG,283,T,283,M,02.8,N,05.1,K*40
$GPZDA,120606,30,06,2000,07,00*4B
$GPGGA,120608,4907.400,N,12311.361,W,2,05,1.80,4,M,,,,*21
$GPGLL,4907.400,N,12311.361,W,120608,A*3F
$GPVTG,284,T,284,M,03.1,N,05.7,K*4E
$GPZDA,120608,30,06,2000,07,00*45
$GPGGA,120610,4907.401,N,12311.364,W,2,05,1.80,4,M,,,,*2C
$GPGLL,4907.401,N,12311.364,W,120610,A*32
$GPVTG,285,T,285,M,03.3,N,06.1,K*49
$GPZDA,120610,30,06,2000,07,00*4C
$GPGGA,120612,4907.401,N,12311.367,W,2,05,1.80,4,M,,,,*2D
$GPGLL,4907.401,N,12311.367,W,120612,A*33
$GPVTG,285,T,285,M,03.5,N,06.4,K*4A
$GPZDA,120612,30,06,2000,07,00*4E
$GPGGA,120614,4907.402,N,12311.370,W,2,05,1.80,4,M,,,,*2E
$GPGLL,4907.402,N,12311.370,W,120614,A*30
$GPVTG,286,T,286,M,03.8,N,07.0,K*42
$GPZDA,120614,30,06,2000,07,00*48

ENSEMBLE  1726 PCTIME 1837807
$GPGGA,120616,4907.403,N,12311.373,W,2,05,1.80,4,M,,,,*2E
$GPGLL,4907.403,N,12311.373,W,120616,A*30
$GPVTG,286,T,286,M,04.0,N,07.4,K*49
$GPZDA,120616,30,06,2000,07,00*4A
$GPGGA,120618,4907.404,N,12311.377,W,2,05,1.80,4,M,,,,*23
$GPGLL,4907.404,N,12311.377,W,120618,A*3D
$GPVTG,286,T,286,M,04.1,N,07.5,K*49
$GPZDA,120618,30,06,2000,07,00*44
$GPGGA,120620,4907.404,N,12311.380,W,2,05,1.80,4,M,,,,*20
$GPGLL,4907.404,N,12311.380,W,120620,A*3E
$GPVTG,284,T,284,M,04.3,N,07.9,K*47
$GPZDA,120620,30,06,2000,07,00*4F
$GPGGA,120622,4907.405,N,12311.384,W,2,05,1.80,5,M,,,,*26
$GPGLL,4907.405,N,12311.384,W,120622,A*39
$GPVTG,288,T,288,M,04.4,N,08.1,K*47
$GPZDA,120622,30,06,2000,07,00*4D

ENSEMBLE  1727 PCTIME 1838707
$GPGGA,120624,4907.406,N,12311.388,W,2,05,1.80,5,M,,,,*2F
$GPGLL,4907.406,N,12311.388,W,120624,A*30
$GPVTG,289,T,289,M,04.5,N,08.3,K*44
$GPZDA,120624,30,06,2000,07,00*4B
$GPGGA,120626,4907.407,N,12311.391,W,2,05,1.80,5,M,,,,*24
$GPGLL,4907.407,N,12311.391,W,120626,A*3B
$GPVTG,288,T,288,M,04.7,N,08.7,K*42
$GPZDA,120626,30,06,2000,07,00*49
$GPGGA,120628,4907.408,N,12311.395,W,2,05,1.80,5,M,,,,*21
$GPGLL,4907.408,N,12311.395,W,120628,A*3E
$GPVTG,288,T,288,M,04.8,N,08.8,K*42
$GPZDA,120628,30,06,2000,07,00*47
$GPGGA,120630,4907.409,N,12311.399,W,2,05,1.80,5,M,,,,*25
$GPGLL,4907.409,N,12311.399,W,120630,A*3A
$GPVTG,288,T,288,M,04.9,N,09.0,K*4A
$GPZDA,120630,30,06,2000,07,00*4E
$GPGGA,120632,4907.409,N,12311.403,W,2,05,1.80,5,M,,,,*23
$GPGLL,4907.409,N,12311.403,W,120632,A*3C
$GPVTG,288,T,288,M,05.0,N,09.2,K*40
$GPZDA,120632,30,06,2000,07,00*4C

ENSEMBLE  1728 PCTIME 1839608
$GPGGA,120634,4907.410,N,12311.407,W,2,05,1.80,5,M,,,,*29
$GPGLL,4907.410,N,12311.407,W,120634,A*36
$GPVTG,289,T,289,M,05.0,N,09.2,K*40
$GPZDA,120634,30,06,2000,07,00*4A
$GPGGA,120636,4907.411,N,12311.411,W,2,05,1.80,5,M,,,,*2D
$GPGLL,4907.411,N,12311.411,W,120636,A*32
$GPVTG,290,T,290,M,05.1,N,09.4,K*47
$GPZDA,120636,30,06,2000,07,00*48
$GPGGA,120638,4907.412,N,12311.415,W,2,05,1.80,5,M,,,,*24
$GPGLL,4907.412,N,12311.415,W,120638,A*3B
$GPVTG,289,T,289,M,05.2,N,09.6,K*46
$GPZDA,120638,30,06,2000,07,00*46
$GPGGA,120640,4907.413,N,12311.420,W,2,05,1.80,5,M,,,,*2C
$GPGLL,4907.413,N,12311.420,W,120640,A*33
$GPVTG,289,T,289,M,05.3,N,09.8,K*49
$GPZDA,120640,30,06,2000,07,00*49

ENSEMBLE  1729 PCTIME 1840509
$GPGGA,120642,4907.414,N,12311.424,W,2,05,1.80,5,M,,,,*2D
$GPGLL,4907.414,N,12311.424,W,120642,A*32
$GPVTG,289,T,289,M,05.3,N,09.8,K*49
$GPZDA,120642,30,06,2000,07,00*4B
$GPGGA,120644,4907.415,N,12311.428,W,2,05,1.80,5,M,,,,*26
$GPGLL,4907.415,N,12311.428,W,120644,A*39
$GPVTG,289,T,289,M,05.3,N,09.8,K*49
$GPZDA,120644,30,06,2000,07,00*4D
$GPGGA,120646,4907.416,N,12311.432,W,2,05,1.80,5,M,,,,*2C
$GPGLL,4907.416,N,12311.432,W,120646,A*33
$GPVTG,289,T,289,M,05.4,N,10.0,K*4E
$GPZDA,120646,30,06,2000,07,00*4F
$GPGGA,120648,4907.417,N,12311.437,W,2,05,1.80,5,M,,,,*26
$GPGLL,4907.417,N,12311.437,W,120648,A*39
$GPVTG,291,T,291,M,05.5,N,10.1,K*4E
$GPZDA,120648,30,06,2000,07,00*41
$GPGGA,120650,4907.419,N,12311.441,W,2,05,1.80,5,M,,,,*20
$GPGLL,4907.419,N,12311.441,W,120650,A*3F
$GPVTG,291,T,291,M,05.5,N,10.1,K*4E
$GPZDA,120650,30,06,2000,07,00*48

ENSEMBLE  1730 PCTIME 1841415
$GPGGA,120652,4907.419,N,12311.446,W,2,05,1.80,5,M,,,,*25
$GPGLL,4907.419,N,12311.446,W,120652,A*3A
$GPVTG,287,T,287,M,05.5,N,10.1,K*4E
$GPZDA,120652,30,06,2000,07,00*4A
$GPGGA,120654,4907.420,N,12311.450,W,2,05,1.80,5,M,,,,*2E
$GPGLL,4907.420,N,12311.450,W,120654,A*31
$GPVTG,286,T,286,M,05.5,N,10.1,K*4E
$GPZDA,120654,30,06,2000,07,00*4C
$GPGGA,120656,4907.421,N,12311.454,W,2,05,1.80,5,M,,,,*29
$GPGLL,4907.421,N,12311.454,W,120656,A*36
$GPVTG,287,T,287,M,05.5,N,10.1,K*4E
$GPZDA,120656,30,06,2000,07,00*4E
$GPGGA,120658,4907.422,N,12311.459,W,2,05,1.80,5,M,,,,*29
$GPGLL,4907.422,N,12311.459,W,120658,A*36
$GPVTG,290,T,290,M,05.5,N,10.1,K*4E
$GPZDA,120658,30,06,2000,07,00*40

ENSEMBLE  1731 PCTIME 1842321
$GPGGA,120700,4907.423,N,12311.463,W,2,05,1.80,5,M,,,,*2D
$GPGLL,4907.423,N,12311.463,W,120700,A*32
$GPVTG,290,T,290,M,05.6,N,10.3,K*4F
$GPZDA,120700,30,06,2000,07,00*4C
$GPGGA,120702,4907.425,N,12311.468,W,2,05,1.80,5,M,,,,*22
$GPGLL,4907.425,N,12311.468,W,120702,A*3D
$GPVTG,291,T,291,M,05.6,N,10.3,K*4F
$GPZDA,120702,30,06,2000,07,00*4E
$GPGGA,120704,4907.426,N,12311.472,W,2,05,1.80,5,M,,,,*2C
$GPGLL,4907.426,N,12311.472,W,120704,A*33
$GPVTG,291,T,291,M,05.6,N,10.3,K*4F
$GPZDA,120704,30,06,2000,07,00*48
$GPGGA,120706,4907.427,N,12311.477,W,2,05,1.80,5,M,,,,*2A
$GPGLL,4907.427,N,12311.477,W,120706,A*35
$GPVTG,291,T,291,M,05.7,N,10.5,K*48
$GPZDA,120706,30,06,2000,07,00*4A
$GPGGA,120708,4907.428,N,12311.481,W,2,05,1.80,5,M,,,,*22
$GPGLL,4907.428,N,12311.481,W,120708,A*3D
$GPVTG,291,T,291,M,05.7,N,10.5,K*48
$GPZDA,120708,30,06,2000,07,00*44

ENSEMBLE  1732 PCTIME 1843233
$GPGGA,120710,4907.429,N,12311.486,W,2,05,1.80,5,M,,,,*2D
$GPGLL,4907.429,N,12311.486,W,120710,A*32
$GPVTG,290,T,290,M,05.7,N,10.5,K*48
$GPZDA,120710,30,06,2000,07,00*4D
$GPGGA,120712,4907.431,N,12311.490,W,2,05,1.80,5,M,,,,*21
$GPGLL,4907.431,N,12311.490,W,120712,A*3E
$GPVTG,289,T,289,M,05.8,N,10.7,K*45
$GPZDA,120712,30,06,2000,07,00*4F
$GPGGA,120714,4907.432,N,12311.495,W,2,05,1.80,5,M,,,,*21
$GPGLL,4907.432,N,12311.495,W,120714,A*3E
$GPVTG,288,T,288,M,05.8,N,10.7,K*45
$GPZDA,120714,30,06,2000,07,00*49
$GPGGA,120716,4907.433,N,12311.500,W,2,05,1.80,5,M,,,,*2F
$GPGLL,4907.433,N,12311.500,W,120716,A*30
$GPVTG,286,T,286,M,05.8,N,10.7,K*45
$GPZDA,120716,30,06,2000,07,00*4B

ENSEMBLE  1733 PCTIME 1844145
$GPGGA,120718,4907.433,N,12311.504,W,2,05,1.80,5,M,,,,*25
$GPGLL,4907.433,N,12311.504,W,120718,A*3A
$GPVTG,285,T,285,M,05.8,N,10.7,K*45
$GPZDA,120718,30,06,2000,07,00*45
$GPGGA,120720,4907.434,N,12311.509,W,2,05,1.80,5,M,,,,*24
$GPGLL,4907.434,N,12311.509,W,120720,A*3B
$GPVTG,285,T,285,M,05.8,N,10.7,K*45
$GPZDA,120720,30,06,2000,07,00*4E
$GPGGA,120722,4907.435,N,12311.514,W,2,05,1.80,5,M,,,,*2B
$GPGLL,4907.435,N,12311.514,W,120722,A*34
$GPVTG,286,T,286,M,05.8,N,10.7,K*45
$GPZDA,120722,30,06,2000,07,00*4C
$GPGGA,120724,4907.436,N,12311.519,W,2,05,1.80,6,M,,,,*20
$GPGLL,4907.436,N,12311.519,W,120724,A*3C
$GPVTG,288,T,288,M,05.8,N,10.7,K*45
$GPZDA,120724,30,06,2000,07,00*4A
$GPGGA,120726,4907.437,N,12311.523,W,2,05,1.80,6,M,,,,*2A
$GPGLL,4907.437,N,12311.523,W,120726,A*36
$GPVTG,288,T,288,M,05.9,N,10.9,K*4A
$GPZDA,120726,30,06,2000,07,00*48

ENSEMBLE  1734 PCTIME 1845062
$GPGGA,120728,4907.438,N,12311.528,W,2,05,1.80,6,M,,,,*20
$GPGLL,4907.438,N,12311.528,W,120728,A*3C
$GPVTG,284,T,284,M,05.9,N,10.9,K*4A
$GPZDA,120728,30,06,2000,07,00*46
$GPGGA,120730,4907.439,N,12311.533,W,2,05,1.80,6,M,,,,*22
$GPGLL,4907.439,N,12311.533,W,120730,A*3E
$GPVTG,279,T,279,M,05.8,N,10.7,K*45
$GPZDA,120730,30,06,2000,07,00*4F
$GPGGA,120732,4907.439,N,12311.538,W,2,05,1.80,6,M,,,,*2B
$GPGLL,4907.439,N,12311.538,W,120732,A*37
$GPVTG,276,T,276,M,05.8,N,10.7,K*45
$GPZDA,120732,30,06,2000,07,00*4D
$GPGGA,120734,4907.440,N,12311.543,W,2,05,1.80,6,M,,,,*2F
$GPGLL,4907.440,N,12311.543,W,120734,A*33
$GPVTG,276,T,276,M,05.8,N,10.7,K*45
$GPZDA,120734,30,06,2000,07,00*4B
$GPGGA,120736,4907.440,N,12311.548,W,2,05,1.80,6,M,,,,*26
$GPGLL,4907.440,N,12311.548,W,120736,A*3A
$GPVTG,274,T,274,M,05.8,N,10.7,K*45
$GPZDA,120736,30,06,2000,07,00*49

ENSEMBLE  1735 PCTIME 1845985
$GPGGA,120738,4907.440,N,12311.552,W,2,05,1.80,6,M,,,,*23
$GPGLL,4907.440,N,12311.552,W,120738,A*3F
$GPVTG,273,T,273,M,05.8,N,10.7,K*45
$GPZDA,120738,30,06,2000,07,00*47
$GPGGA,120740,4907.440,N,12311.557,W,2,05,1.80,6,M,,,,*29
$GPGLL,4907.440,N,12311.557,W,120740,A*35
$GPVTG,272,T,272,M,05.8,N,10.7,K*45
$GPZDA,120740,30,06,2000,07,00*48
$GPGGA,120742,4907.440,N,12311.562,W,2,05,1.80,6,M,,,,*2D
$GPGLL,4907.440,N,12311.562,W,120742,A*31
$GPVTG,270,T,270,M,05.8,N,10.7,K*45
$GPZDA,120742,30,06,2000,07,00*4A
$GPGGA,120744,4907.441,N,12311.567,W,2,05,1.80,6,M,,,,*2F
$GPGLL,4907.441,N,12311.567,W,120744,A*33
$GPVTG,269,T,269,M,05.8,N,10.7,K*45
$GPZDA,120744,30,06,2000,07,00*4C

ENSEMBLE  1736 PCTIME 1846908
$GPGGA,120746,4907.440,N,12311.572,W,2,05,1.80,6,M,,,,*28
$GPGLL,4907.440,N,12311.572,W,120746,A*34
$GPVTG,266,T,266,M,05.9,N,10.9,K*4A
$GPZDA,120746,30,06,2000,07,00*4E
$GPGGA,120748,4907.440,N,12311.577,W,2,05,1.80,6,M,,,,*23
$GPGLL,4907.440,N,12311.577,W,120748,A*3F
$GPVTG,264,T,264,M,05.8,N,10.7,K*45
$GPZDA,120748,30,06,2000,07,00*40
$GPGGA,120750,4907.440,N,12311.582,W,2,05,1.80,6,M,,,,*20
$GPGLL,4907.440,N,12311.582,W,120750,A*3C
$GPVTG,263,T,263,M,05.8,N,10.7,K*45
$GPZDA,120750,30,06,2000,07,00*49
$GPGGA,120752,4907.439,N,12311.587,W,2,05,1.80,6,M,,,,*29
$GPGLL,4907.439,N,12311.587,W,120752,A*35
$GPVTG,261,T,261,M,05.8,N,10.7,K*45
$GPZDA,120752,30,06,2000,07,00*4B
$GPGGA,120754,4907.439,N,12311.592,W,2,05,1.80,6,M,,,,*2B
$GPGLL,4907.439,N,12311.592,W,120754,A*37
$GPVTG,260,T,260,M,05.8,N,10.7,K*45
$GPZDA,120754,30,06,2000,07,00*4D

ENSEMBLE  1737 PCTIME 1847825
$GPGGA,120756,4907.438,N,12311.596,W,2,05,1.80,6,M,,,,*2C
$GPGLL,4907.438,N,12311.596,W,120756,A*30
$GPVTG,260,T,260,M,05.8,N,10.7,K*45
$GPZDA,120756,30,06,2000,07,00*4F
$GPGGA,120758,4907.438,N,12311.601,W,2,05,1.80,6,M,,,,*2F
$GPGLL,4907.438,N,12311.601,W,120758,A*33
$GPVTG,259,T,259,M,05.8,N,10.7,K*45
$GPZDA,120758,30,06,2000,07,00*41
$GPGGA,120800,4907.437,N,12311.606,W,2,05,1.80,6,M,,,,*25
$GPGLL,4907.437,N,12311.606,W,120800,A*39
$GPVTG,259,T,259,M,05.9,N,10.9,K*4A
$GPZDA,120800,30,06,2000,07,00*43
$GPGGA,120802,4907.437,N,12311.611,W,2,05,1.80,6,M,,,,*21
$GPGLL,4907.437,N,12311.611,W,120802,A*3D
$GPVTG,259,T,259,M,05.9,N,10.9,K*4A
$GPZDA,120802,30,06,2000,07,00*41

ENSEMBLE  1738 PCTIME 1848742
$GPGGA,120804,4907.436,N,12311.616,W,2,05,1.80,6,M,,,,*21
$GPGLL,4907.436,N,12311.616,W,120804,A*3D
$GPVTG,258,T,258,M,06.0,N,11.1,K*49
$GPZDA,120804,30,06,2000,07,00*47
$GPGGA,120806,4907.436,N,12311.621,W,2,05,1.80,6,M,,,,*27
$GPGLL,4907.436,N,12311.621,W,120806,A*3B
$GPVTG,257,T,257,M,06.0,N,11.1,K*49
$GPZDA,120806,30,06,2000,07,00*45
$GPGGA,120808,4907.435,N,12311.626,W,2,05,1.80,5,M,,,,*2E
$GPGLL,4907.435,N,12311.626,W,120808,A*31
$GPVTG,256,T,256,M,06.0,N,11.1,K*49
$GPZDA,120808,30,06,2000,07,00*4B
$GPGGA,120810,4907.434,N,12311.631,W,2,05,1.80,5,M,,,,*20
$GPGLL,4907.434,N,12311.631,W,120810,A*3F
$GPVTG,255,T,255,M,06.0,N,11.1,K*49
$GPZDA,120810,30,06,2000,07,00*42
$GPGGA,120812,4907.433,N,12311.635,W,2,05,1.80,5,M,,,,*21
$GPGLL,4907.433,N,12311.635,W,120812,A*3E
$GPVTG,253,T,253,M,06.0,N,11.1,K*49
$GPZDA,120812,30,06,2000,07,00*40

ENSEMBLE  1739 PCTIME 1849654
$GPGGA,120814,4907.432,N,12311.640,W,2,05,1.80,5,M,,,,*24
$GPGLL,4907.432,N,12311.640,W,120814,A*3B
$GPVTG,251,T,251,M,06.0,N,11.1,K*49
$GPZDA,120814,30,06,2000,07,00*46
$GPGGA,120816,4907.431,N,12311.645,W,2,05,1.80,5,M,,,,*20
$GPGLL,4907.431,N,12311.645,W,120816,A*3F
$GPVTG,249,T,249,M,06.0,N,11.1,K*49
$GPZDA,120816,30,06,2000,07,00*44
$GPGGA,120818,4907.430,N,12311.650,W,2,05,1.80,5,M,,,,*2B
$GPGLL,4907.430,N,12311.650,W,120818,A*34
$GPVTG,248,T,248,M,05.9,N,10.9,K*4A
$GPZDA,120818,30,06,2000,07,00*4A
$GPGGA,120820,4907.429,N,12311.654,W,2,05,1.80,5,M,,,,*2C
$GPGLL,4907.429,N,12311.654,W,120820,A*33
$GPVTG,247,T,247,M,05.9,N,10.9,K*4A
$GPZDA,120820,30,06,2000,07,00*41
$GPGGA,120822,4907.427,N,12311.659,W,2,05,1.80,5,M,,,,*2D
$GPGLL,4907.427,N,12311.659,W,120822
ENSEMBLE  1740 PCTIME 1850566
,A*32
$GPVTG,247,T,247,M,05.9,N,10.9,K*4A
$GPZDA,120822,30,06,2000,07,00*43
$GPGGA,120824,4907.426,N,12311.663,W,2,05,1.80,5,M,,,,*23
$GPGLL,4907.426,N,12311.663,W,120824,A*3C
$GPVTG,248,T,248,M,05.9,N,10.9,K*4A
$GPZDA,120824,30,06,2000,07,00*45
$GPGGA,120826,4907.425,N,12311.668,W,2,05,1.80,5,M,,,,*29
$GPGLL,4907.425,N,12311.668,W,120826,A*36
$GPVTG,248,T,248,M,05.9,N,10.9,K*4A
$GPZDA,120826,30,06,2000,07,00*47
$GPGGA,120828,4907.424,N,12311.673,W,2,05,1.80,5,M,,,,*2C
$GPGLL,4907.424,N,12311.673,W,120828,A*33
$GPVTG,249,T,249,M,06.0,N,11.1,K*49
$GPZDA,120828,30,06,2000,07,00*49
$GPGGA,120830,4907.423,N,12311.678,W,2,05,1.80,5,M,,,,*29
$GPGLL,4907.423,N,12311.678,W,120830,A*36
$GPVTG,250,T,250,M,06.0,N,11.1,K*49
$GPZDA,120830,30,06,2000,07,00*40

ENSEMBLE  1741 PCTIME 1851483
$GPGGA,120832,4907.422,N,12311.682,W,2,05,1.80,5,M,,,,*2F
$GPGLL,4907.422,N,12311.682,W,120832,A*30
$GPVTG,250,T,250,M,06.0,N,11.1,K*49
$GPZDA,120832,30,06,2000,07,00*42
$GPGGA,120834,4907.421,N,12311.687,W,2,05,1.80,5,M,,,,*2F
$GPGLL,4907.421,N,12311.687,W,120834,A*30
$GPVTG,250,T,250,M,06.0,N,11.1,K*49
$GPZDA,120834,30,06,2000,07,00*44
$GPGGA,120836,4907.420,N,12311.692,W,2,05,1.80,5,M,,,,*28
$GPGLL,4907.420,N,12311.692,W,120836,A*37
$GPVTG,251,T,251,M,06.0,N,11.1,K*49
$GPZDA,120836,30,06,2000,07,00*46
$GPGGA,120838,4907.418,N,12311.697,W,2,05,1.80,5,M,,,,*28
$GPGLL,4907.418,N,12311.697,W,120838,A*37
$GPVTG,251,T,251,M,06.0,N,11.1,K*49
$GPZDA,120838,30,06,2000,07,00*48
$GPGGA,120840,4907.417,N,12311.702,W,2,05,1.80,5,M,,,,*25
$GPGLL,4907.417,N,12311.702,W,120840,A*3A
$GPVTG,251,T,251,M,06.0,N,11.1,K*49
$GPZDA,120840,30,06,2000,07,00*47

ENSEMBLE  1742 PCTIME 1852417
$GPGGA,120842,4907.416,N,12311.706,W,2,05,1.80,5,M,,,,*22
$GPGLL,4907.416,N,12311.706,W,120842,A*3D
$GPVTG,252,T,252,M,06.0,N,11.1,K*49
$GPZDA,120842,30,06,2000,07,00*45
$GPGGA,120844,4907.416,N,12311.711,W,2,05,1.80,5,M,,,,*22
$GPGLL,4907.416,N,12311.711,W,120844,A*3D
$GPVTG,255,T,255,M,06.1,N,11.2,K*4B
$GPZDA,120844,30,06,2000,07,00*43
$GPGGA,120846,4907.415,N,12311.716,W,2,05,1.80,5,M,,,,*24
$GPGLL,4907.415,N,12311.716,W,120846,A*3B
$GPVTG,256,T,256,M,06.1,N,11.2,K*4B
$GPZDA,120846,30,06,2000,07,00*41
$GPGGA,120848,4907.414,N,12311.721,W,2,05,1.80,5,M,,,,*2F
$GPGLL,4907.414,N,12311.721,W,120848,A*30
$GPVTG,253,T,253,M,06.0,N,11.1,K*49
$GPZDA,120848,30,06,2000,07,00*4F

ENSEMBLE  1743 PCTIME 1853208
$GPGGA,120850,4907.413,N,12311.726,W,2,05,1.80,5,M,,,,*26
$GPGLL,4907.413,N,12311.726,W,120850,A*39
$GPVTG,249,T,249,M,05.9,N,10.9,K*4A
$GPZDA,120850,30,06,2000,07,00*46
$GPGGA,120852,4907.412,N,12311.730,W,2,05,1.80,5,M,,,,*22
$GPGLL,4907.412,N,12311.730,W,120852,A*3D
$GPVTG,246,T,246,M,05.9,N,10.9,K*4A
$GPZDA,120852,30,06,2000,07,00*44
$GPGGA,120854,4907.410,N,12311.735,W,2,05,1.80,5,M,,,,*23
$GPGLL,4907.410,N,12311.735,W,120854,A*3C
$GPVTG,243,T,243,M,05.8,N,10.7,K*45
$GPZDA,120854,30,06,2000,07,00*42
$GPGGA,120856,4907.409,N,12311.739,W,2,05,1.80,5,M,,,,*25
$GPGLL,4907.409,N,12311.739,W,120856,A*3A
$GPVTG,243,T,243,M,05.8,N,10.7,K*45
$GPZDA,120856,30,06,2000,07,00*40

ENSEMBLE  1744 PCTIME 1853993
$GPGGA,120858,4907.408,N,12311.743,W,2,05,1.80,4,M,,,,*26
$GPGLL,4907.408,N,12311.743,W,120858,A*38
$GPVTG,242,T,242,M,05.8,N,10.7,K*45
$GPZDA,120858,30,06,2000,07,00*4E
$GPGGA,120900,4907.406,N,12311.748,W,2,05,1.80,4,M,,,,*2F
$GPGLL,4907.406,N,12311.748,W,120900,A*31
$GPVTG,241,T,241,M,05.8,N,10.7,K*45
$GPZDA,120900,30,06,2000,07,00*42
$GPGGA,120902,4907.405,N,12311.752,W,2,05,1.80,4,M,,,,*25
$GPGLL,4907.405,N,12311.752,W,120902,A*3B
$GPVTG,240,T,240,M,05.8,N,10.7,K*45
$GPZDA,120902,30,06,2000,07,00*40
$GPGGA,120904,4907.403,N,12311.756,W,2,05,1.80,4,M,,,,*21
$GPGLL,4907.403,N,12311.756,W,120904,A*3F
$GPVTG,238,T,238,M,05.7,N,10.5,K*48
$GPZDA,
ENSEMBLE  1745 PCTIME 1854778
120904,30,06,2000,07,00*46
$GPGGA,120906,4907.401,N,12311.760,W,2,05,1.80,4,M,,,,*24
$GPGLL,4907.401,N,12311.760,W,120906,A*3A
$GPVTG,236,T,236,M,05.7,N,10.5,K*48
$GPZDA,120906,30,06,2000,07,00*44
$GPGGA,120908,4907.400,N,12311.764,W,2,05,1.80,4,M,,,,*2F
$GPGLL,4907.400,N,12311.764,W,120908,A*31
$GPVTG,235,T,235,M,05.7,N,10.5,K*48
$GPZDA,120908,30,06,2000,07,00*4A
$GPGGA,120910,4907.398,N,12311.768,W,2,05,1.80,4,M,,,,*2C
$GPGLL,4907.398,N,12311.768,W,120910,A*32
$GPVTG,234,T,234,M,05.6,N,10.3,K*4F
$GPZDA,120910,30,06,2000,07,00*43
$GPGGA,120912,4907.396,N,12311.772,W,2,05,1.80,4,M,,,,*2B
$GPGLL
ENSEMBLE  1746 PCTIME 1855558
,4907.396,N,12311.772,W,120912,A*35
$GPVTG,232,T,232,M,05.6,N,10.3,K*4F
$GPZDA,120912,30,06,2000,07,00*41
$GPGGA,120914,4907.394,N,12311.775,W,2,05,1.80,4,M,,,,*28
$GPGLL,4907.394,N,12311.775,W,120914,A*36
$GPVTG,229,T,229,M,05.5,N,10.1,K*4E
$GPZDA,120914,30,06,2000,07,00*47
$GPGGA,120916,4907.392,N,12311.778,W,2,05,1.80,4,M,,,,*21
$GPGLL,4907.392,N,12311.778,W,120916,A*3F
$GPVTG,226,T,226,M,05.3,N,09.8,K*49
$GPZDA,120916,30,06,2000,07,00*45
$GPGGA,120918,4907.390,N,12311.781,W,2,05,1.80,4,M,,,,*2B
$GPGLL,4907.390,N,12311.781,W,120918,A*35
$GPVTG,228,T,228,M,05.0,N,09.2,K*40
$GPZDA,120918,30,06,2000,07,00*4B
$GPGGA,120920,4907.
ENSEMBLE  1747 PCTIME 1856355
389,N,12311.784,W,2,05,1.80,4,M,,,,*2D
$GPGLL,4907.389,N,12311.784,W,120920,A*33
$GPVTG,231,T,231,M,04.8,N,08.8,K*42
$GPZDA,120920,30,06,2000,07,00*40
$GPGGA,120922,4907.387,N,12311.787,W,2,05,1.80,4,M,,,,*22
$GPGLL,4907.387,N,12311.787,W,120922,A*3C
$GPVTG,232,T,232,M,04.6,N,08.5,K*41
$GPZDA,120922,30,06,2000,07,00*42
$GPGGA,120924,4907.386,N,12311.790,W,2,05,1.80,4,M,,,,*23
$GPGLL,4907.386,N,12311.790,W,120924,A*3D
$GPVTG,235,T,235,M,04.4,N,08.1,K*47
$GPZDA,120924,30,06,2000,07,00*44
$GPGGA,120926,4907.385,N,12311.793,W,2,05,1.80,4,M,,,,*21
$GPGLL,4907.385,N,12311.793,W,120926,A*3F
$GPVTG,238,T,238,M,04.3,N,07.9,K*47
$GPZDA,120926,30,06,2000,07,00*46

ENSEMBLE  1748 PCTIME 1857146
$GPGGA,120928,4907.384,N,12311.796,W,2,05,1.80,4,M,,,,*2B
$GPGLL,4907.384,N,12311.796,W,120928,A*35
$GPVTG,241,T,241,M,04.1,N,07.5,K*49
$GPZDA,120928,30,06,2000,07,00*48
$GPGGA,120930,4907.383,N,12311.799,W,2,05,1.80,4,M,,,,*2A
$GPGLL,4907.383,N,12311.799,W,120930,A*34
$GPVTG,244,T,244,M,04.0,N,07.4,K*49
$GPZDA,120930,30,06,2000,07,00*41
$GPGGA,120932,4907.382,N,12311.802,W,2,05,1.80,4,M,,,,*24
$GPGLL,4907.382,N,12311.802,W,120932,A*3A
$GPVTG,247,T,247,M,03.9,N,07.2,K*41
$GPZDA,120932,30,06,2000,07,00*43
$GPGGA,120934,4907.381,N,12311.805,W,2,05,1.80,4,M,,,,*26
$GPGLL,4907.381,N,12311.805,W,120934,A*38
$GPVTG,249,T,249,M,03.7,N,06.8,K*44
$GPZDA,120934,30,06,2000,07,00*45

ENSEMBLE  1749 PCTIME 1857937
$GPGGA,120936,4907.381,N,12311.808,W,2,05,1.80,4,M,,,,*29
$GPGLL,4907.381,N,12311.808,W,120936,A*37
$GPVTG,252,T,252,M,03.6,N,06.6,K*4B
$GPZDA,120936,30,06,2000,07,00*47
$GPGGA,120938,4907.380,N,12311.811,W,2,05,1.80,4,M,,,,*2E
$GPGLL,4907.380,N,12311.811,W,120938,A*30
$GPVTG,255,T,255,M,03.5,N,06.4,K*4A
$GPZDA,120938,30,06,2000,07,00*49
$GPGGA,120940,4907.380,N,12311.814,W,2,05,1.80,4,M,,,,*24
$GPGLL,4907.380,N,12311.814,W,120940,A*3A
$GPVTG,256,T,256,M,03.4,N,06.2,K*4D
$GPZDA,120940,30,06,2000,07,00*46
$GPGGA,120942,4907.380,N,12311.816,W,2,05,1.80,4,M,,,,*24
$GPGLL,4907.380,N,12311.816,W,120942,A*3A
$GPVTG,259,T,259,M,03.3,N,06.1,K*49
$GPZDA,120942,30,06,2000,07,00*44

ENSEMBLE  1750 PCTIME 1858728
$GPGGA,120944,4907.379,N,12311.819,W,2,05,1.80,4,M,,,,*2B
$GPGLL,4907.379,N,12311.819,W,120944,A*35
$GPVTG,260,T,260,M,03.2,N,05.9,K*43
$GPZDA,120944,30,06,2000,07,00*42
$GPGGA,120946,4907.379,N,12311.821,W,2,05,1.80,4,M,,,,*22
$GPGLL,4907.379,N,12311.821,W,120946,A*3C
$GPVTG,261,T,261,M,03.1,N,05.7,K*4E
$GPZDA,120946,30,06,2000,07,00*40
$GPGGA,120948,4907.379,N,12311.824,W,2,05,1.80,4,M,,,,*29
$GPGLL,4907.379,N,12311.824,W,120948,A*37
$GPVTG,264,T,264,M,03.0,N,05.5,K*4D
$GPZDA,120948,30,06,2000,07,00*4E
$GPGGA,120950,4907.379,N,12311.826,W,2,05,1.80,4,M,,,,*22
$GPGLL,4907.379,N,12311.826,W,120950,A*3C
$GPVTG,265,T,265,M,02.9,N,05.3,K*43
$GPZDA,120950,30,06,2000,07,00*47

ENSEMBLE  1751 PCTIME 1859519
$GPGGA,120952,4907.379,N,12311.829,W,2,05,1.80,4,M,,,,*2F
$GPGLL,4907.379,N,12311.829,W,120952,A*31
$GPVTG,266,T,266,M,02.8,N,05.1,K*40
$GPZDA,120952,30,06,2000,07,00*45
$GPGGA,120954,4907.379,N,12311.831,W,2,05,1.80,4,M,,,,*20
$GPGLL,4907.379,N,12311.831,W,120954,A*3E
$GPVTG,268,T,268,M,02.8,N,05.1,K*40
$GPZDA,120954,30,06,2000,07,00*43
$GPGGA,120956,4907.379,N,12311.833,W,2,05,1.80,3,M,,,,*27
$GPGLL,4907.379,N,12311.833,W,120956,A*3E
$GPVTG,269,T,269,M,02.7,N,05.0,K*4E
$GPZDA,120956,30,06,2000,07,00*41
$GPGGA,120958,4907.379,N,12311.835,W,2,05,1.80,3,M,,,,*2F
$GPGLL,4907.379,N,12311.835,W,120958,A*36
$GPVTG,269,T,269,M,02.6,N,04.8,K*46
$GPZDA,120958,30,06,2000,07,00*4F

ENSEMBLE  1752 PCTIME 1860309
$GPGGA,121000,4907.379,N,12311.838,W,2,05,1.80,3,M,,,,*27
$GPGLL,4907.379,N,12311.838,W,121000,A*3E
$GPVTG,270,T,270,M,02.6,N,04.8,K*46
$GPZDA,121000,30,06,2000,07,00*4A
$GPGGA,121002,4907.379,N,12311.840,W,2,05,1.80,3,M,,,,*2A
$GPGLL,4907.379,N,12311.840,W,121002,A*33
$GPVTG,272,T,272,M,02.5,N,04.6,K*4B
$GPZDA,121002,30,06,2000,07,00*48
$GPGGA,121004,4907.380,N,12311.842,W,2,05,1.80,3,M,,,,*28
$GPGLL,4907.380,N,12311.842,W,121004,A*31
$GPVTG,271,T,271,M,02.5,N,04.6,K*4B
$GPZDA,121004,30,06,2000,07,00*4E
$GPGGA,121006,4907.380,N,12311.844,W,2,05,1.80,3,M,,,,*2C
$GPGLL,4907.380,N,12311.844,W,121006,A*35
$GPVTG,272,T,272,M,02.4,N,04.4,K*48
$GPZDA,121006,30,06,2000,07,00*4C

ENSEMBLE  1753 PCTIME 1861095
$GPGGA,121008,4907.380,N,12311.846,W,2,05,1.80,3,M,,,,*20
$GPGLL,4907.380,N,12311.846,W,121008,A*39
$GPVTG,273,T,273,M,02.4,N,04.4,K*48
$GPZDA,121008,30,06,2000,07,00*42
$GPGGA,121010,4907.380,N,12311.848,W,2,05,1.80,3,M,,,,*27
$GPGLL,4907.380,N,12311.848,W,121010,A*3E
$GPVTG,274,T,274,M,02.3,N,04.2,K*49
$GPZDA,121010,30,06,2000,07,00*4B
$GPGGA,121012,4907.380,N,12311.850,W,2,05,1.80,3,M,,,,*2C
$GPGLL,4907.380,N,12311.850,W,121012,A*35
$GPVTG,274,T,274,M,02.3,N,04.2,K*49
$GPZDA,121012,30,06,2000,07,00*49
$GPGGA,121014,4907.380,N,12311.851,W,2,05,1.80,3,M,,,,*2B
$GPGLL,4907.380,N,12311.851,W,121014,A*32
$GPVTG,276,T,276,M,02.2,N,04.0,K*4A
$GPZDA,121014,30,06,2000,07,00*4F

ENSEMBLE  1754 PCTIME 1861886
$GPGGA,121016,4907.381,N,12311.853,W,2,05,1.80,3,M,,,,*2A
$GPGLL,4907.381,N,12311.853,W,121016,A*33
$GPVTG,275,T,275,M,02.2,N,04.0,K*4A
$GPZDA,121016,30,06,2000,07,00*4D
$GPGGA,121018,4907.381,N,12311.855,W,2,05,1.80,3,M,,,,*22
$GPGLL,4907.381,N,12311.855,W,121018,A*3B
$GPVTG,277,T,277,M,02.2,N,04.0,K*4A
$GPZDA,121018,30,06,2000,07,00*43
$GPGGA,121020,4907.381,N,12311.857,W,2,05,1.80,4,M,,,,*2C
$GPGLL,4907.381,N,12311.857,W,121020,A*32
$GPVTG,277,T,277,M,02.1,N,03.8,K*46
$GPZDA,121020,30,06,2000,07,00*48
$GPGGA,121022,4907.381,N,12311.859,W,2,05,1.80,4,M,,,,*20
$GPGLL,4907.381,N,12311.859,W,121022,A*3E
$GPVTG,277,T,277,M,02.1,N,03.8,K*46
$GPZDA,121022,30,06,2000,07,00*4A

ENSEMBLE  1755 PCTIME 1862677
$GPGGA,121024,4907.382,N,12311.860,W,2,05,1.80,4,M,,,,*2F
$GPGLL,4907.382,N,12311.860,W,121024,A*31
$GPVTG,278,T,278,M,02.1,N,03.8,K*46
$GPZDA,121024,30,06,2000,07,00*4C
$GPGGA,121026,4907.382,N,12311.862,W,2,05,1.80,4,M,,,,*2F
$GPGLL,4907.382,N,12311.862,W,121026,A*31
$GPVTG,278,T,278,M,02.1,N,03.8,K*46
$GPZDA,121026,30,06,2000,07,00*4E
$GPGGA,121028,4907.382,N,12311.864,W,2,05,1.80,4,M,,,,*27
$GPGLL,4907.382,N,12311.864,W,121028,A*39
$GPVTG,278,T,278,M,02.0,N,03.7,K*48
$GPZDA,121028,30,06,2000,07,00*40
$GPGGA,121030,4907.382,N,12311.865,W,2,05,1.80,4,M,,,,*2F
$GPGLL,4907.382,N,12311.865,W,121030,A*31
$GPVTG,279,T,279,M,02.0,N,03.7,K*48
$GPZDA,121030,30,06,2000,07,00*49

ENSEMBLE  1756 PCTIME 1863468
$GPGGA,121032,4907.383,N,12311.867,W,2,05,1.80,4,M,,,,*2E
$GPGLL,4907.383,N,12311.867,W,121032,A*30
$GPVTG,279,T,279,M,02.0,N,03.7,K*48
$GPZDA,121032,30,06,2000,07,00*4B
$GPGGA,121034,4907.383,N,12311.869,W,2,05,1.80,4,M,,,,*26
$GPGLL,4907.383,N,12311.869,W,121034,A*38
$GPVTG,279,T,279,M,02.0,N,03.7,K*48
$GPZDA,121034,30,06,2000,07,00*4D
$GPGGA,121036,4907.383,N,12311.870,W,2,05,1.80,4,M,,,,*2C
$GPGLL,4907.383,N,12311.870,W,121036,A*32
$GPVTG,279,T,279,M,01.9,N,03.5,K*40
$GPZDA,121036,30,06,2000,07,00*4F
$GPGGA,121038,4907.383,N,12311.872,W,2,05,1.80,4,M,,,,*20
$GPGLL,4907.383,N,12311.872,W,121038,A*3E
$GPVTG,279,T,279,M,01.9,N,03.5,K*40
$GPZDA,121038,30,06,2000,07,00*41

ENSEMBLE  1757 PCTIME 1864253
$GPGGA,121040,4907.384,N,12311.873,W,2,05,1.80,4,M,,,,*29
$GPGLL,4907.384,N,12311.873,W,121040,A*37
$GPVTG,279,T,279,M,01.9,N,03.5,K*40
$GPZDA,121040,30,06,2000,07,00*4E
$GPGGA,121042,4907.384,N,12311.875,W,2,05,1.80,4,M,,,,*2D
$GPGLL,4907.384,N,12311.875,W,121042,A*33
$GPVTG,280,T,280,M,01.9,N,03.5,K*40
$GPZDA,121042,30,06,2000,07,00*4C
$GPGGA,121044,4907.384,N,12311.876,W,2,05,1.80,4,M,,,,*28
$GPGLL,4907.384,N,12311.876,W,121044,A*36
$GPVTG,280,T,280,M,01.9,N,03.5,K*40
$GPZDA,121044,30,06,2000,07,00*4A
$GPGGA,121046,4907.384,N,12311.878,W,2,05,1.80,4,M,,,,*24
$GPGLL,4907.384,N,12311.878,W,121046,A*3A
$GPVTG,281,T,281,M,01.8,N,03.3,K*47
$GPZDA,121046,30,06,2000,07,00*48

ENSEMBLE  1758 PCTIME 1865044
$GPGGA,121048,4907.385,N,12311.879,W,2,05,1.80,4,M,,,,*2A
$GPGLL,4907.385,N,12311.879,W,121048,A*34
$GPVTG,281,T,281,M,01.8,N,03.3,K*47
$GPZDA,121048,30,06,2000,07,00*46
$GPGGA,121050,4907.385,N,12311.881,W,2,05,1.80,5,M,,,,*25
$GPGLL,4907.385,N,12311.881,W,121050,A*3A
$GPVTG,281,T,281,M,01.8,N,03.3,K*47
$GPZDA,121050,30,06,2000,07,00*4F
$GPGGA,121052,4907.385,N,12311.882,W,2,05,1.80,5,M,,,,*24
$GPGLL,4907.385,N,12311.882,W,121052,A*3B
$GPVTG,282,T,282,M,01.8,N,03.3,K*47
$GPZDA,121052,30,06,2000,07,00*4D
$GPGGA,121054,4907.385,N,12311.884,W,2,05,1.80,5,M,,,,*24
$GPGLL,4907.385,N,12311.884,W,121054,A*3B
$GPVTG,281,T,281,M,01.8,N,03.3,K*47
$GPZDA,121054,30,06,2000,07,00*4B

ENSEMBLE  1759 PCTIME 1865835
$GPGGA,121056,4907.386,N,12311.886,W,2,05,1.80,5,M,,,,*27
$GPGLL,4907.386,N,12311.886,W,121056,A*38
$GPVTG,289,T,289,M,02.0,N,03.7,K*48
$GPZDA,121056,30,06,2000,07,00*49
$GPGGA,121058,4907.386,N,12311.887,W,2,05,1.80,5,M,,,,*28
$GPGLL,4907.386,N,12311.887,W,121058,A*37
$GPVTG,296,T,296,M,02.2,N,04.0,K*4A
$GPZDA,121058,30,06,2000,07,00*47
$GPGGA,121100,4907.387,N,12311.889,W,2,05,1.80,5,M,,,,*2B
$GPGLL,4907.387,N,12311.889,W,121100,A*34
$GPVTG,293,T,293,M,02.3,N,04.2,K*49
$GPZDA,121100,30,06,2000,07,00*4B
$GPGGA,121102,4907.387,N,12311.891,W,2,05,1.80,5,M,,,,*20
$GPGLL,4907.387,N,12311.891,W,121102,A*3F
$GPVTG,288,T,288,M,02.4,N,04.4,K*48
$GPZDA,121102,30,06,2000,07,00*49

ENSEMBLE  1760 PCTIME 1866615
$GPGGA,121104,4907.388,N,12311.893,W,2,05,1.80,5,M,,,,*2B
$GPGLL,4907.388,N,12311.893,W,121104,A*34
$GPVTG,290,T,290,M,02.3,N,04.2,K*49
$GPZDA,121104,30,06,2000,07,00*4F
$GPGGA,121106,4907.388,N,12311.895,W,2,05,1.80,5,M,,,,*2F
$GPGLL,4907.388,N,12311.895,W,121106,A*30
$GPVTG,285,T,285,M,02.3,N,04.2,K*49
$GPZDA,121106,30,06,2000,07,00*4D
$GPGGA,121108,4907.389,N,12311.896,W,2,05,1.80,5,M,,,,*23
$GPGLL,4907.389,N,12311.896,W,121108,A*3C
$GPVTG,285,T,285,M,02.3,N,04.2,K*49
$GPZDA,121108,30,06,2000,07,00*43
$GPGGA,121110,4907.389,N,12311.898,W,2,05,1.80,5,M,,,,*24
$GPGLL,4907.389,N,12311.898,W,121110,A*3B
$GPVTG,285,T,285,M,02.3,N,04.2,K*49
$GPZDA,121110,30,06,2000,07,00*4A

ENSEMBLE  1761 PCTIME 1867406
$GPGGA,121112,4907.389,N,12311.900,W,2,05,1.80,5,M,,,,*26
$GPGLL,4907.389,N,12311.900,W,121112,A*39
$GPVTG,282,T,282,M,02.3,N,04.2,K*49
$GPZDA,121112,30,06,2000,07,00*48
$GPGGA,121114,4907.390,N,12311.902,W,2,05,1.80,5,M,,,,*2A
$GPGLL,4907.390,N,12311.902,W,121114,A*35
$GPVTG,283,T,283,M,02.2,N,04.0,K*4A
$GPZDA,121114,30,06,2000,07,00*4E
$GPGGA,121116,4907.390,N,12311.904,W,2,05,1.80,5,M,,,,*2E
$GPGLL,4907.390,N,12311.904,W,121116,A*31
$GPVTG,281,T,281,M,02.4,N,04.4,K*48
$GPZDA,121116,30,06,2000,07,00*4C
$GPGGA,121118,4907.391,N,12311.906,W,2,05,1.80,6,M,,,,*20
$GPGLL,4907.391,N,12311.906,W,121118,A*3C
$GPVTG,283,T,283,M,02.6,N,04.8,K*46
$GPZDA,121118,30,06,2000,07,00*42

ENSEMBLE  1762 PCTIME 1868197
$GPGGA,121120,4907.391,N,12311.908,W,2,05,1.80,6,M,,,,*25
$GPGLL,4907.391,N,12311.908,W,121120,A*39
$GPVTG,283,T,283,M,02.9,N,05.3,K*43
$GPZDA,121120,30,06,2000,07,00*49
$GPGGA,121122,4907.391,N,12311.911,W,2,05,1.80,6,M,,,,*2F
$GPGLL,4907.391,N,12311.911,W,121122,A*33
$GPVTG,281,T,281,M,03.2,N,05.9,K*43
$GPZDA,121122,30,06,2000,07,00*4B
$GPGGA,121124,4907.392,N,12311.914,W,2,05,1.80,6,M,,,,*2F
$GPGLL,4907.392,N,12311.914,W,121124,A*33
$GPVTG,282,T,282,M,03.4,N,06.2,K*4D
$GPZDA,121124,30,06,2000,07,00*4D
$GPGGA,121126,4907.392,N,12311.917,W,2,05,1.80,6,M,,,,*2E
$GPGLL,4907.392,N,12311.917,W,121126,A*32
$GPVTG,280,T,280,M,03.7,N,0
ENSEMBLE  1763 PCTIME 1868982
6.8,K*44
$GPZDA,121126,30,06,2000,07,00*4F
$GPGGA,121128,4907.393,N,12311.921,W,2,05,1.80,6,M,,,,*24
$GPGLL,4907.393,N,12311.921,W,121128,A*38
$GPVTG,281,T,281,M,03.9,N,07.2,K*41
$GPZDA,121128,30,06,2000,07,00*41
$GPGGA,121130,4907.393,N,12311.924,W,2,05,1.80,6,M,,,,*28
$GPGLL,4907.393,N,12311.924,W,121130,A*34
$GPVTG,283,T,283,M,04.1,N,07.5,K*49
$GPZDA,121130,30,06,2000,07,00*48
$GPGGA,121132,4907.394,N,12311.928,W,2,05,1.80,6,M,,,,*21
$GPGLL,4907.394,N,12311.928,W,121132,A*3D
$GPVTG,282,T,282,M,04.3,N,07.9,K*47
$GPZDA,121132,30,06,2000,07,00*4A
$GPGGA,121134,4907.395,N,12311.931,W,2,05,1.80,6,M,,,,*2
ENSEMBLE  1764 PCTIME 1869768
E
$GPGLL,4907.395,N,12311.931,W,121134,A*32
$GPVTG,284,T,284,M,04.5,N,08.3,K*44
$GPZDA,121134,30,06,2000,07,00*4C
$GPGGA,121136,4907.395,N,12311.935,W,2,05,1.80,6,M,,,,*28
$GPGLL,4907.395,N,12311.935,W,121136,A*34
$GPVTG,285,T,285,M,04.6,N,08.5,K*41
$GPZDA,121136,30,06,2000,07,00*4E
$GPGGA,121138,4907.396,N,12311.939,W,2,05,1.80,6,M,,,,*29
$GPGLL,4907.396,N,12311.939,W,121138,A*35
$GPVTG,283,T,283,M,04.8,N,08.8,K*42
$GPZDA,121138,30,06,2000,07,00*40
$GPGGA,121140,4907.397,N,12311.943,W,2,05,1.80,6,M,,,,*2A
$GPGLL,4907.397,N,12311.943,W,121140,A*36
$GPVTG,284,T,284,M,04.9,N,09.0,K*4A
$GPZDA,121140,30,06,2000,07,00*4F
$GPGGA,121142,4907.397,N,
ENSEMBLE  1765 PCTIME 1870559
12311.947,W,2,05,1.80,6,M,,,,*2C
$GPGLL,4907.397,N,12311.947,W,121142,A*30
$GPVTG,282,T,282,M,05.0,N,09.2,K*40
$GPZDA,121142,30,06,2000,07,00*4D
$GPGGA,121144,4907.398,N,12311.952,W,2,05,1.80,6,M,,,,*21
$GPGLL,4907.398,N,12311.952,W,121144,A*3D
$GPVTG,283,T,283,M,05.1,N,09.4,K*47
$GPZDA,121144,30,06,2000,07,00*4B
$GPGGA,121146,4907.399,N,12311.956,W,2,05,1.80,6,M,,,,*26
$GPGLL,4907.399,N,12311.956,W,121146,A*3A
$GPVTG,282,T,282,M,05.2,N,09.6,K*46
$GPZDA,121146,30,06,2000,07,00*49
$GPGGA,121148,4907.399,N,12311.960,W,2,05,1.80,6,M,,,,*2D
$GPGLL,4907.399,N,12311.960,W,121148,A*31
$GPVTG,281,T,281,M,05.3,N,09.8,K*49
$GPZDA,121148,30,06,2000,07,00*47
$
ENSEMBLE  1766 PCTIME 1871355
GPGGA,121150,4907.400,N,12311.965,W,2,05,1.80,6,M,,,,*26
$GPGLL,4907.400,N,12311.965,W,121150,A*3A
$GPVTG,282,T,282,M,05.3,N,09.8,K*49
$GPZDA,121150,30,06,2000,07,00*4E
$GPGGA,121152,4907.401,N,12311.969,W,2,05,1.80,6,M,,,,*29
$GPGLL,4907.401,N,12311.969,W,121152,A*35
$GPVTG,285,T,285,M,05.4,N,10.0,K*4E
$GPZDA,121152,30,06,2000,07,00*4C
$GPGGA,121154,4907.402,N,12311.974,W,2,05,1.80,6,M,,,,*20
$GPGLL,4907.402,N,12311.974,W,121154,A*3C
$GPVTG,286,T,286,M,05.4,N,10.0,K*4E
$GPZDA,121154,30,06,2000,07,00*4A
$GPGGA,121156,4907.403,N,12311.978,W,2,05,1.80,6,M,,,,*2F
$GPGLL,4907.403,N,12311.978,W,121156,A*33
$GPVTG,288,T,288,M,05.5,N,10.1,K*4E
$GPZDA,121156,30,06,2000,07,00*48

ENSEMBLE  1767 PCTIME 1872146
$GPGGA,121158,4907.404,N,12311.982,W,2,05,1.80,6,M,,,,*23
$GPGLL,4907.404,N,12311.982,W,121158,A*3F
$GPVTG,290,T,290,M,05.6,N,10.3,K*4F
$GPZDA,121158,30,06,2000,07,00*46
$GPGGA,121200,4907.405,N,12311.987,W,2,05,1.80,6,M,,,,*29
$GPGLL,4907.405,N,12311.987,W,121200,A*35
$GPVTG,291,T,291,M,05.6,N,10.3,K*4F
$GPZDA,121200,30,06,2000,07,00*48
$GPGGA,121202,4907.406,N,12311.991,W,2,05,1.80,6,M,,,,*2F
$GPGLL,4907.406,N,12311.991,W,121202,A*33
$GPVTG,292,T,292,M,05.7,N,10.5,K*48
$GPZDA,121202,30,06,2000,07,00*4A
$GPGGA,121204,4907.408,N,12311.996,W,2,05,1.80,6,M,,,,*20
$GPGLL,4907.408,N,12311.996,W,121204,A*3C
$GPVTG,292,T,292,M,05.7,N,10.5,K*48
$GPZDA,121204,30,06,2000,07,00*4C

ENSEMBLE  1768 PCTIME 1872948
$GPGGA,121206,4907.409,N,12312.000,W,2,05,1.80,6,M,,,,*26
$GPGLL,4907.409,N,12312.000,W,121206,A*3A
$GPVTG,293,T,293,M,05.8,N,10.7,K*45
$GPZDA,121206,30,06,2000,07,00*4E
$GPGGA,121208,4907.410,N,12312.005,W,2,05,1.80,6,M,,,,*25
$GPGLL,4907.410,N,12312.005,W,121208,A*39
$GPVTG,293,T,293,M,05.8,N,10.7,K*45
$GPZDA,121208,30,06,2000,07,00*40
$GPGGA,121210,4907.412,N,12312.009,W,2,05,1.80,6,M,,,,*22
$GPGLL,4907.412,N,12312.009,W,121210,A*3E
$GPVTG,293,T,293,M,05.8,N,10.7,K*45
$GPZDA,121210,30,06,2000,07,00*49
$GPGGA,121212,4907.413,N,12312.014,W,2,04,3.20,6,M,,,,*24
$GPGLL,4907.413,N,12312.014,W,121212,A*31
$GPVTG,295,T,295,M,05.9,N,10.9,K*4A
$GPZDA,121212,30,06,2000,07,00*4B

ENSEMBLE  1769 PCTIME 1873744
$GPGGA,121214,4907.414,N,12312.018,W,2,04,3.20,6,M,,,,*29
$GPGLL,4907.414,N,12312.018,W,121214,A*3C
$GPVTG,295,T,295,M,05.9,N,10.9,K*4A
$GPZDA,121214,30,06,2000,07,00*4D
$GPGGA,121216,4907.416,N,12312.023,W,2,04,3.20,6,M,,,,*21
$GPGLL,4907.416,N,12312.023,W,121216,A*34
$GPVTG,295,T,295,M,05.9,N,10.9,K*4A
$GPZDA,121216,30,06,2000,07,00*4F
$GPGGA,121218,4907.417,N,12312.027,W,2,04,1.80,6,M,,,,*22
$GPGLL,4907.417,N,12312.027,W,121218,A*3F
$GPVTG,296,T,296,M,05.9,N,10.9,K*4A
$GPZDA,121218,30,06,2000,07,00*41
$GPGGA,121220,4907.419,N,12312.032,W,2,05,1.80,6,M,,,,*22
$GPGLL,4907.419,N,12312.032,W,121220,A*3E
$GPVTG,297,T,297,M,05.9,N,10.9,K*4A
$GPZDA,121220,30,06,2000,07,00*4A

ENSEMBLE  1770 PCTIME 1874541
$GPGGA,121222,4907.420,N,12312.036,W,2,05,1.80,6,M,,,,*2E
$GPGLL,4907.420,N,12312.036,W,121222,A*32
$GPVTG,298,T,298,M,05.9,N,10.9,K*4A
$GPZDA,121222,30,06,2000,07,00*48
$GPGGA,121224,4907.422,N,12312.040,W,2,05,1.80,6,M,,,,*2B
$GPGLL,4907.422,N,12312.040,W,121224,A*37
$GPVTG,299,T,299,M,05.9,N,10.9,K*4A
$GPZDA,121224,30,06,2000,07,00*4E
$GPGGA,121226,4907.423,N,12312.045,W,2,05,1.80,6,M,,,,*2D
$GPGLL,4907.423,N,12312.045,W,121226,A*31
$GPVTG,299,T,299,M,06.0,N,11.1,K*49
$GPZDA,121226,30,06,2000,07,00*4C
$GPGGA,121228,4907.425,N,12312.049,W,2,05,1.80,6,M,,,,*29
$GPGLL,4907.425,N,12312.049,W,121228,A*35
$GPVTG,300,T,300,M,06.0,N,11.1,K*49
$GPZDA,121228,30,06,2000,07,00*42

ENSEMBLE  1771 PCTIME 1875337
$GPGGA,121230,4907.427,N,12312.054,W,2,05,1.80,6,M,,,,*2E
$GPGLL,4907.427,N,12312.054,W,121230,A*32
$GPVTG,300,T,300,M,06.0,N,11.1,K*49
$GPZDA,121230,30,06,2000,07,00*4B
$GPGGA,121232,4907.429,N,12312.058,W,2,05,1.80,6,M,,,,*2E
$GPGLL,4907.429,N,12312.058,W,121232,A*32
$GPVTG,300,T,300,M,06.0,N,11.1,K*49
$GPZDA,121232,30,06,2000,07,00*49
$GPGGA,121234,4907.430,N,12312.062,W,2,05,1.80,6,M,,,,*29
$GPGLL,4907.430,N,12312.062,W,121234,A*35
$GPVTG,300,T,300,M,06.0,N,11.1,K*49
$GPZDA,121234,30,06,2000,07,00*4F
$GPGGA,121236,4907.432,N,12312.067,W,2,05,1.80,6,M,,,,*2C
$GPGLL,4907.432,N,12312.067,W,121236,A*30
$GPVTG,300,T,300,M,06.0,N,11.1,K*49
$GPZDA,121236,30,06,2000,07,00*4D

ENSEMBLE  1772 PCTIME 1876134
$GPGGA,121238,4907.434,N,12312.071,W,2,05,1.80,6,M,,,,*23
$GPGLL,4907.434,N,12312.071,W,121238,A*3F
$GPVTG,300,T,300,M,06.0,N,11.1,K*49
$GPZDA,121238,30,06,2000,07,00*43
$GPGGA,121240,4907.436,N,12312.075,W,2,05,1.80,6,M,,,,*2A
$GPGLL,4907.436,N,12312.075,W,121240,A*36
$GPVTG,300,T,300,M,06.0,N,11.1,K*49
$GPZDA,121240,30,06,2000,07,00*4C
$GPGGA,121242,4907.437,N,12312.080,W,2,05,1.80,6,M,,,,*23
$GPGLL,4907.437,N,12312.080,W,121242,A*3F
$GPVTG,299,T,299,M,06.1,N,11.2,K*4B
$GPZDA,121242,30,06,2000,07,00*4E
$GPGGA,121244,4907.439,N,12312.084,W,2,05,1.80,6,M,,,,*2F
$GPGLL,4907.439,N,12312.084,W,121244,A*33
$GPVTG,299,T,299,M,06.1,N,11.2,K*4B
$GPZDA,121244,30,06,2000,07,00*48

ENSEMBLE  1773 PCTIME 1876924
$GPGGA,121246,4907.441,N,12312.089,W,2,05,1.80,6,M,,,,*2F
$GPGLL,4907.441,N,12312.089,W,121246,A*33
$GPVTG,298,T,298,M,06.1,N,11.2,K*4B
$GPZDA,121246,30,06,2000,07,00*4A
$GPGGA,121248,4907.443,N,12312.093,W,2,05,1.80,6,M,,,,*28
$GPGLL,4907.443,N,12312.093,W,121248,A*34
$GPVTG,298,T,298,M,06.1,N,11.2,K*4B
$GPZDA,121248,30,06,2000,07,00*44
$GPGGA,121250,4907.444,N,12312.098,W,2,05,1.80,6,M,,,,*2D
$GPGLL,4907.444,N,12312.098,W,121250,A*31
$GPVTG,298,T,298,M,06.1,N,11.2,K*4B
$GPZDA,121250,30,06,2000,07,00*4D
$GPGGA,121252,4907.446,N,12312.102,W,2,05,1.80,6,M,,,,*2F
$GPGLL,4907.446,N,12312.102,W,121252,A*33
$GPVTG,298,T,298,M,06.1,N,11.2,K*4B
$GPZDA,121252,30,06,2000,07,00*4F

ENSEMBLE  1774 PCTIME 1877721
$GPGGA,121254,4907.448,N,12312.107,W,2,05,1.80,6,M,,,,*22
$GPGLL,4907.448,N,12312.107,W,121254,A*3E
$GPVTG,298,T,298,M,06.1,N,11.2,K*4B
$GPZDA,121254,30,06,2000,07,00*49
$GPGGA,121256,4907.449,N,12312.112,W,2,05,1.80,6,M,,,,*25
$GPGLL,4907.449,N,12312.112,W,121256,A*39
$GPVTG,297,T,297,M,06.1,N,11.2,K*4B
$GPZDA,121256,30,06,2000,07,00*4B
$GPGGA,121258,4907.451,N,12312.116,W,2,05,1.80,6,M,,,,*26
$GPGLL,4907.451,N,12312.116,W,121258,A*3A
$GPVTG,297,T,297,M,06.1,N,11.2,K*4B
$GPZDA,121258,30,06,2000,07,00*45
$GPGGA,121300,4907.452,N,12312.121,W,2,05,1.80,6,M,,,,*2D
$GPGLL,4907.452,N,12312.121,W,121300,A*31
$GPVTG,296,T,296,M,06.1,N,11.2,K*4B
$GPZDA,121300,30,06,2000,07,00*49

ENSEMBLE  1775 PCTIME 1878517
$GPGGA,121302,4907.454,N,12312.125,W,2,05,1.80,6,M,,,,*2D
$GPGLL,4907.454,N,12312.125,W,121302,A*31
$GPVTG,296,T,296,M,06.1,N,11.2,K*4B
$GPZDA,121302,30,06,2000,07,00*4B
$GPGGA,121304,4907.456,N,12312.130,W,2,05,1.80,6,M,,,,*2D
$GPGLL,4907.456,N,12312.130,W,121304,A*31
$GPVTG,296,T,296,M,06.1,N,11.2,K*4B
$GPZDA,121304,30,06,2000,07,00*4D
$GPGGA,121306,4907.457,N,12312.135,W,2,05,1.80,6,M,,,,*2B
$GPGLL,4907.457,N,12312.135,W,121306,A*37
$GPVTG,297,T,297,M,06.1,N,11.2,K*4B
$GPZDA,121306,30,06,2000,07,00*4F
$GPGGA,121308,4907.459,N,12312.139,W,2,05,1.80,6,M,,,,*27
$GPGLL,4907.459,N,12312.139,W,121308,A*3B
$GPVTG,297,T,297,M,06.1,N,11.2,K*4B
$GPZDA,121308,30,06,2000,07,00*41

ENSEMBLE  1776 PCTIME 1879308
$GPGGA,121310,4907.460,N,12312.144,W,2,05,1.80,6,M,,,,*2E
$GPGLL,4907.460,N,12312.144,W,121310,A*32
$GPVTG,297,T,297,M,06.1,N,11.2,K*4B
$GPZDA,121310,30,06,2000,07,00*48
$GPGGA,121312,4907.462,N,12312.149,W,2,05,1.80,6,M,,,,*23
$GPGLL,4907.462,N,12312.149,W,121312,A*3F
$GPVTG,298,T,298,M,06.1,N,11.2,K*4B
$GPZDA,121312,30,06,2000,07,00*4A
$GPGGA,121314,4907.464,N,12312.153,W,2,05,1.80,6,M,,,,*28
$GPGLL,4907.464,N,12312.153,W,121314,A*34
$GPVTG,298,T,298,M,06.1,N,11.2,K*4B
$GPZDA,121314,30,06,2000,07,00*4C
$GPGGA,121316,4907.465,N,12312.158,W,2,05,1.80,6,M,,,,*20
$GPGLL,4907.465,N,12312.158,W,121316,A*3C
$GPVTG,299,T,299,M,06.1,N,11.2,K*4B
$GPZDA,121316,30,06,2000,07,00*4E

ENSEMBLE  1777 PCTIME 1880094
$GPGGA,121318,4907.467,N,12312.162,W,2,05,1.80,5,M,,,,*26
$GPGLL,4907.467,N,12312.162,W,121318,A*39
$GPVTG,300,T,300,M,06.1,N,11.2,K*4B
$GPZDA,121318,30,06,2000,07,00*40
$GPGGA,121320,4907.469,N,12312.167,W,2,05,1.80,5,M,,,,*26
$GPGLL,4907.469,N,12312.167,W,121320,A*39
$GPVTG,300,T,300,M,06.1,N,11.2,K*4B
$GPZDA,121320,30,06,2000,07,00*4B
$GPGGA,121322,4907.471,N,12312.171,W,2,05,1.80,5,M,,,,*2A
$GPGLL,4907.471,N,12312.171,W,121322,A*35
$GPVTG,301,T,301,M,06.1,N,11.2,K*4B
$GPZDA,121322,30,06,2000,07,00*49
$GPGGA,121324,4907.473,N,12312.175,W,2,05,1.80,5,M,,,,*2A
$GPGLL,4907.473,N,12312.175,W,121324,A*35
$GPVTG,302,T,302,M,06.1,N,11.2,K*4B
$GPZDA,121324,30,06,2000,07,00*4F

ENSEMBLE  1778 PCTIME 1880885
$GPGGA,121326,4907.475,N,12312.180,W,2,05,1.80,5,M,,,,*24
$GPGLL,4907.475,N,12312.180,W,121326,A*3B
$GPVTG,303,T,303,M,06.1,N,11.2,K*4B
$GPZDA,121326,30,06,2000,07,00*4D
$GPGGA,121328,4907.477,N,12312.184,W,2,05,1.80,5,M,,,,*2C
$GPGLL,4907.477,N,12312.184,W,121328,A*33
$GPVTG,303,T,303,M,06.1,N,11.2,K*4B
$GPZDA,121328,30,06,2000,07,00*43
$GPGGA,121330,4907.479,N,12312.188,W,2,05,1.80,5,M,,,,*27
$GPGLL,4907.479,N,12312.188,W,121330,A*38
$GPVTG,304,T,304,M,06.1,N,11.2,K*4B
$GPZDA,121330,30,06,2000,07,00*4A
$GPGGA,121332,4907.480,N,12312.192,W,2,05,1.80,5,M,,,,*28
$GPGLL,4907.480,N,12312.192,W,121332,A*37
$GPVTG,304,T,304,M,06.1,N,11.2,K*4B
$GPZDA,121332,30,06,2000,07,00*48

ENSEMBLE  1779 PCTIME 1881670
$GPGGA,121334,4907.483,N,12312.197,W,2,05,1.80,5,M,,,,*28
$GPGLL,4907.483,N,12312.197,W,121334,A*37
$GPVTG,305,T,305,M,06.1,N,11.2,K*4B
$GPZDA,121334,30,06,2000,07,00*4E
$GPGGA,121336,4907.485,N,12312.201,W,2,05,1.80,5,M,,,,*20
$GPGLL,4907.485,N,12312.201,W,121336,A*3F
$GPVTG,306,T,306,M,06.1,N,11.2,K*4B
$GPZDA,121336,30,06,2000,07,00*4C
$GPGGA,121338,4907.487,N,12312.205,W,2,05,1.80,5,M,,,,*28
$GPGLL,4907.487,N,12312.205,W,121338,A*37
$GPVTG,307,T,307,M,06.1,N,11.2,K*4B
$GPZDA,121338,30,06,2000,07,00*42
$GPGGA,121340,4907.489,N,12312.209,W,2,05,1.80,5,M,,,,*25
$GPGLL,4907.489,N,12312.209,W,121340,A*3A
$GPVTG,307,T,307,M,06.1,N,11.2,K*4B
$GPZDA,121340,30,06,2000,07,00*4D

ENSEMBLE  1780 PCTIME 1882455
$GPGGA,121342,4907.491,N,12312.213,W,2,05,1.80,5,M,,,,*25
$GPGLL,4907.491,N,12312.213,W,121342,A*3A
$GPVTG,307,T,307,M,06.2,N,11.4,K*4E
$GPZDA,121342,30,06,2000,07,00*4F
$GPGGA,121344,4907.493,N,12312.218,W,2,05,1.80,4,M,,,,*2B
$GPGLL,4907.493,N,12312.218,W,121344,A*35
$GPVTG,306,T,306,M,06.2,N,11.4,K*4E
$GPZDA,121344,30,06,2000,07,00*49
$GPGGA,121346,4907.495,N,12312.222,W,2,05,1.80,4,M,,,,*26
$GPGLL,4907.495,N,12312.222,W,121346,A*38
$GPVTG,305,T,305,M,06.2,N,11.4,K*4E
$GPZDA,121346,30,06,2000,07,00*4B
$GPGGA,121348,4907.497,N,12312.226,W,2,05,1.80,4,M,,,,*2E
$GPGLL,4907.497,N,12312.226,W,121348,A*30
$GPVTG,304,T,304,M,06.2,N,11.4,K*4E
$GPZDA,121348,30,06,2000,07,00*45

ENSEMBLE  1781 PCTIME 1883246
$GPGGA,121350,4907.499,N,12312.231,W,2,05,1.80,4,M,,,,*2F
$GPGLL,4907.499,N,12312.231,W,121350,A*31
$GPVTG,304,T,304,M,06.2,N,11.4,K*4E
$GPZDA,121350,30,06,2000,07,00*4C
$GPGGA,121352,4907.501,N,12312.235,W,2,05,1.80,4,M,,,,*29
$GPGLL,4907.501,N,12312.235,W,121352,A*37
$GPVTG,304,T,304,M,06.2,N,11.4,K*4E
$GPZDA,121352,30,06,2000,07,00*4E
$GPGGA,121354,4907.503,N,12312.239,W,2,05,1.80,4,M,,,,*21
$GPGLL,4907.503,N,12312.239,W,121354,A*3F
$GPVTG,304,T,304,M,06.2,N,11.4,K*4E
$GPZDA,121354,30,06,2000,07,00*48
$GPGGA,121356,4907.505,N,12312.244,W,2,05,1.80,4,M,,,,*2F
$GPGLL,4907.505,N,12312.244,W,121356,A*31
$GPVTG,304,T,304,M,06.3,N,11.6,K*4D
$GPZDA,121356,30,06,2000,07,00*4A

ENSEMBLE  1782 PCTIME 1884037
$GPGGA,121358,4907.507,N,12312.248,W,2,05,1.80,4,M,,,,*2F
$GPGLL,4907.507,N,12312.248,W,121358,A*31
$GPVTG,305,T,305,M,06.3,N,11.6,K*4D
$GPZDA,121358,30,06,2000,07,00*44
$GPGGA,121400,4907.509,N,12312.253,W,2,05,1.80,4,M,,,,*21
$GPGLL,4907.509,N,12312.253,W,121400,A*3F
$GPVTG,305,T,305,M,06.3,N,11.6,K*4D
$GPZDA,121400,30,06,2000,07,00*4E
$GPGGA,121402,4907.511,N,12312.257,W,2,05,1.80,4,M,,,,*2E
$GPGLL,4907.511,N,12312.257,W,121402,A*30
$GPVTG,304,T,304,M,06.3,N,11.6,K*4D
$GPZDA,121402,30,06,2000,07,00*4C
$GPGGA,121404,4907.513,N,12312.261,W,2,05,1.80,4,M,,,,*2F
$GPGLL,4907.513,N,12312.261,W,121404,A*31
$GPVTG,303,T,303,M,06.3,N,11.6,K*4D
$GPZDA,121404,30,06,2000,07,00*4A

ENSEMBLE  1783 PCTIME 1884823
$GPGGA,121406,4907.515,N,12312.266,W,2,05,1.80,4,M,,,,*2C
$GPGLL,4907.515,N,12312.266,W,121406,A*32
$GPVTG,303,T,303,M,06.3,N,11.6,K*4D
$GPZDA,121406,30,06,2000,07,00*48
$GPGGA,121408,4907.517,N,12312.270,W,2,05,1.80,4,M,,,,*27
$GPGLL,4907.517,N,12312.270,W,121408,A*39
$GPVTG,303,T,303,M,06.3,N,11.6,K*4D
$GPZDA,121408,30,06,2000,07,00*46
$GPGGA,121410,4907.519,N,12312.275,W,2,05,1.80,5,M,,,,*24
$GPGLL,4907.519,N,12312.275,W,121410,A*3B
$GPVTG,303,T,303,M,06.2,N,11.4,K*4E
$GPZDA,121410,30,06,2000,07,00*4F
$GPGGA,121412,4907.521,N,12312.279,W,2,05,1.80,5,M,,,,*21
$GPGLL,4907.521,N,12312.279,W,121412,A*3E
$GPVTG,303,T,303,M,06.2,N,11.4,K*4E
$GPZDA,121412,30,06,2000,07,00*4D

ENSEMBLE  1784 PCTIME 1885608
$GPGGA,121414,4907.523,N,12312.284,W,2,05,1.80,5,M,,,,*27
$GPGLL,4907.523,N,12312.284,W,121414,A*38
$GPVTG,304,T,304,M,06.2,N,11.4,K*4E
$GPZDA,121414,30,06,2000,07,00*4B
$GPGGA,121416,4907.525,N,12312.288,W,2,05,1.80,5,M,,,,*2F
$GPGLL,4907.525,N,12312.288,W,121416,A*30
$GPVTG,304,T,304,M,06.2,N,11.4,K*4E
$GPZDA,121416,30,06,2000,07,00*49
$GPGGA,121418,4907.527,N,12312.292,W,2,05,1.80,5,M,,,,*28
$GPGLL,4907.527,N,12312.292,W,121418,A*37
$GPVTG,306,T,306,M,06.2,N,11.4,K*4E
$GPZDA,121418,30,06,2000,07,00*47
$GPGGA,121420,4907.529,N,12312.297,W,2,05,1.80,5,M,,,,*28
$GPGLL,4907.529,N,12312.297,W,121420,A*37
$GPVTG,306,T,306,M,06.2,N,11.4,K*4E
$GPZDA,121420,30,06,2000,07,00*4C

ENSEMBLE  1785 PCTIME 1886399
$GPGGA,121422,4907.532,N,12312.301,W,2,05,1.70,5,M,,,,*21
$GPGLL,4907.532,N,12312.301,W,121422,A*31
$GPVTG,306,T,306,M,06.3,N,11.6,K*4D
$GPZDA,121422,30,06,2000,07,00*4E
$GPGGA,121424,4907.534,N,12312.305,W,2,05,1.70,5,M,,,,*25
$GPGLL,4907.534,N,12312.305,W,121424,A*35
$GPVTG,306,T,306,M,06.3,N,11.6,K*4D
$GPZDA,121424,30,06,2000,07,00*48
$GPGGA,121426,4907.536,N,12312.310,W,2,05,1.70,5,M,,,,*21
$GPGLL,4907.536,N,12312.310,W,121426,A*31
$GPVTG,304,T,304,M,06.3,N,11.6,K*4D
$GPZDA,121426,30,06,2000,07,00*4A
$GPGGA,121428,4907.538,N,12312.314,W,2,05,1.70,5,M,,,,*25
$GPGLL,4907.538,N,12312.314,W,121428,A*35
$GPVTG,302,T,302,M,06.2,N,11.4,K*4E
ENSEMBLE  1786 PCTIME 1887185

$GPZDA,121428,30,06,2000,07,00*44
$GPGGA,121430,4907.539,N,12312.319,W,2,05,1.70,5,M,,,,*20
$GPGLL,4907.539,N,12312.319,W,121430,A*30
$GPVTG,301,T,301,M,06.2,N,11.4,K*4E
$GPZDA,121430,30,06,2000,07,00*4D
$GPGGA,121432,4907.541,N,12312.323,W,2,05,1.70,5,M,,,,*24
$GPGLL,4907.541,N,12312.323,W,121432,A*34
$GPVTG,300,T,300,M,06.2,N,11.4,K*4E
$GPZDA,121432,30,06,2000,07,00*4F
$GPGGA,121434,4907.543,N,12312.328,W,2,05,1.70,5,M,,,,*2B
$GPGLL,4907.543,N,12312.328,W,121434,A*3B
$GPVTG,299,T,299,M,06.2,N,11.4,K*4E
$GPZDA,121434,30,06,2000,07,00*49
$GPGGA,121436,4907.545,N,12312.332,W,2,05,1.70,5,M,,,,*24
$GPGLL,4907.
ENSEMBLE  1787 PCTIME 1887970
545,N,12312.332,W,121436,A*34
$GPVTG,298,T,298,M,06.2,N,11.4,K*4E
$GPZDA,121436,30,06,2000,07,00*4B
$GPGGA,121438,4907.546,N,12312.337,W,2,05,1.70,6,M,,,,*2F
$GPGLL,4907.546,N,12312.337,W,121438,A*3C
$GPVTG,297,T,297,M,06.2,N,11.4,K*4E
$GPZDA,121438,30,06,2000,07,00*45
$GPGGA,121440,4907.548,N,12312.342,W,2,05,1.70,6,M,,,,*2C
$GPGLL,4907.548,N,12312.342,W,121440,A*3F
$GPVTG,297,T,297,M,06.2,N,11.4,K*4E
$GPZDA,121440,30,06,2000,07,00*4A
$GPGGA,121442,4907.550,N,12312.346,W,2,05,1.70,6,M,,,,*23
$GPGLL,4907.550,N,12312.346,W,121442,A*30
$GPVTG,296,T,296,M,06.3,N,11.6,K*4D
$GPZDA,121442,30,06,2000,07,00*48
$GPGGA,121444,4907.
ENSEMBLE  1788 PCTIME 1888761
551,N,12312.351,W,2,05,1.70,5,M,,,,*21
$GPGLL,4907.551,N,12312.351,W,121444,A*31
$GPVTG,296,T,296,M,06.3,N,11.6,K*4D
$GPZDA,121444,30,06,2000,07,00*4E
$GPGGA,121446,4907.553,N,12312.356,W,2,05,1.70,5,M,,,,*26
$GPGLL,4907.553,N,12312.356,W,121446,A*36
$GPVTG,296,T,296,M,06.3,N,11.6,K*4D
$GPZDA,121446,30,06,2000,07,00*4C
$GPGGA,121448,4907.555,N,12312.361,W,2,05,1.70,5,M,,,,*2A
$GPGLL,4907.555,N,12312.361,W,121448,A*3A
$GPVTG,296,T,296,M,06.3,N,11.6,K*4D
$GPZDA,121448,30,06,2000,07,00*42
$GPGGA,121450,4907.556,N,12312.365,W,2,05,1.70,5,M,,,,*24
$GPGLL,4907.556,N,12312.365,W,121450,A*34
$GPVTG,296,T,296,M,06.3,N,11.6,K*4D
$GPZDA,121450,30,06,2000,07,00*4B

ENSEMBLE  1789 PCTIME 1889552
$GPGGA,121452,4907.558,N,12312.370,W,2,05,1.70,5,M,,,,*2C
$GPGLL,4907.558,N,12312.370,W,121452,A*3C
$GPVTG,296,T,296,M,06.3,N,11.6,K*4D
$GPZDA,121452,30,06,2000,07,00*49
$GPGGA,121454,4907.560,N,12312.375,W,2,05,1.70,5,M,,,,*24
$GPGLL,4907.560,N,12312.375,W,121454,A*34
$GPVTG,297,T,297,M,06.3,N,11.6,K*4D
$GPZDA,121454,30,06,2000,07,00*4F
$GPGGA,121456,4907.561,N,12312.380,W,2,05,1.70,5,M,,,,*2D
$GPGLL,4907.561,N,12312.380,W,121456,A*3D
$GPVTG,298,T,298,M,06.3,N,11.6,K*4D
$GPZDA,121456,30,06,2000,07,00*4D
$GPGGA,121458,4907.563,N,12312.384,W,2,05,1.70,5,M,,,,*25
$GPGLL,4907.563,N,12312.384,W,121458,A*35
$GPVTG,298,T,298,M,06.3,N,11.6,K*4D
$GPZDA,121458,30,06,2000,07,00*43

ENSEMBLE  1790 PCTIME 1890337
$GPGGA,121500,4907.565,N,12312.389,W,2,05,1.70,5,M,,,,*22
$GPGLL,4907.565,N,12312.389,W,121500,A*32
$GPVTG,298,T,298,M,06.4,N,11.8,K*44
$GPZDA,121500,30,06,2000,07,00*4F
$GPGGA,121502,4907.566,N,12312.394,W,2,05,1.70,5,M,,,,*2F
$GPGLL,4907.566,N,12312.394,W,121502,A*3F
$GPVTG,298,T,298,M,06.4,N,11.8,K*44
$GPZDA,121502,30,06,2000,07,00*4D
$GPGGA,121504,4907.568,N,12312.399,W,2,05,1.70,5,M,,,,*2A
$GPGLL,4907.568,N,12312.399,W,121504,A*3A
$GPVTG,298,T,298,M,06.4,N,11.8,K*44
$GPZDA,121504,30,06,2000,07,00*4B
$GPGGA,121506,4907.570,N,12312.403,W,2,05,1.70,5,M,,,,*25
$GPGLL,4907.570,N,12312.403,W,121506,A*35
$GPVTG,298,T,298,M,06.4,N,11.8,K*44
$GPZDA,121506,30,06,2000,07,00*49

ENSEMBLE  1791 PCTIME 1891128
$GPGGA,121508,4907.572,N,12312.408,W,2,05,1.70,5,M,,,,*22
$GPGLL,4907.572,N,12312.408,W,121508,A*32
$GPVTG,298,T,298,M,06.4,N,11.8,K*44
$GPZDA,121508,30,06,2000,07,00*47
$GPGGA,121510,4907.573,N,12312.413,W,2,05,1.70,5,M,,,,*20
$GPGLL,4907.573,N,12312.413,W,121510,A*30
$GPVTG,299,T,299,M,06.4,N,11.8,K*44
$GPZDA,121510,30,06,2000,07,00*4E
$GPGGA,121512,4907.575,N,12312.418,W,2,05,1.70,5,M,,,,*2F
$GPGLL,4907.575,N,12312.418,W,121512,A*3F
$GPVTG,300,T,300,M,06.4,N,11.8,K*44
$GPZDA,121512,30,06,2000,07,00*4C
$GPGGA,121514,4907.577,N,12312.422,W,2,05,1.70,5,M,,,,*22
$GPGLL,4907.577,N,12312.422,W,121514,A*32
$GPVTG,299,T,299,M,06.4,N,11.8,K*44
$GPZDA,121514,30,06,2000,07,00*4A

ENSEMBLE  1792 PCTIME 1891908
$GPGGA,121516,4907.579,N,12312.427,W,2,05,1.70,5,M,,,,*2B
$GPGLL,4907.579,N,12312.427,W,121516,A*3B
$GPVTG,299,T,299,M,06.4,N,11.8,K*44
$GPZDA,121516,30,06,2000,07,00*48
$GPGGA,121518,4907.581,N,12312.432,W,2,05,1.70,5,M,,,,*26
$GPGLL,4907.581,N,12312.432,W,121518,A*36
$GPVTG,300,T,300,M,06.4,N,11.8,K*44
$GPZDA,121518,30,06,2000,07,00*46
$GPGGA,121520,4907.583,N,12312.436,W,2,05,1.70,5,M,,,,*2B
$GPGLL,4907.583,N,12312.436,W,121520,A*3B
$GPVTG,299,T,299,M,06.4,N,11.8,K*44
$GPZDA,121520,30,06,2000,07,00*4D
$GPGGA,121522,4907.584,N,12312.441,W,2,05,1.70,5,M,,,,*2E
$GPGLL,4907.584,N,12312.441,W,121522,A*3E
$GPVTG,299,T,299,M,06.4,N,11.8,K*44
$GPZDA,121522,30,06,2000,07,00*4F

ENSEMBLE  1793 PCTIME 1892694
$GPGGA,121524,4907.586,N,12312.446,W,2,05,1.70,5,M,,,,*2D
$GPGLL,4907.586,N,12312.446,W,121524,A*3D
$GPVTG,299,T,299,M,06.4,N,11.8,K*44
$GPZDA,121524,30,06,2000,07,00*49
$GPGGA,121526,4907.588,N,12312.451,W,2,05,1.70,5,M,,,,*27
$GPGLL,4907.588,N,12312.451,W,121526,A*37
$GPVTG,298,T,298,M,06.4,N,11.8,K*44
$GPZDA,121526,30,06,2000,07,00*4B
$GPGGA,121528,4907.590,N,12312.455,W,2,05,1.70,5,M,,,,*24
$GPGLL,4907.590,N,12312.455,W,121528,A*34
$GPVTG,298,T,298,M,06.4,N,11.8,K*44
$GPZDA,121528,30,06,2000,07,00*45
$GPGGA,121530,4907.591,N,12312.460,W,2,05,1.70,5,M,,,,*2A
$GPGLL,4907.591,N,12312.460,W,121530,A*3A
$GPVTG,297,T,297,M,06.4,N,11.8,K*44
$GPZDA,121530,30,06,2000,07,00*4C

ENSEMBLE  1794 PCTIME 1893479
$GPGGA,121532,4907.593,N,12312.465,W,2,05,1.70,5,M,,,,*2F
$GPGLL,4907.593,N,12312.465,W,121532,A*3F
$GPVTG,296,T,296,M,06.4,N,11.8,K*44
$GPZDA,121532,30,06,2000,07,00*4E
$GPGGA,121534,4907.595,N,12312.470,W,2,05,1.70,5,M,,,,*2B
$GPGLL,4907.595,N,12312.470,W,121534,A*3B
$GPVTG,296,T,296,M,06.4,N,11.8,K*44
$GPZDA,121534,30,06,2000,07,00*48
$GPGGA,121536,4907.596,N,12312.475,W,2,05,1.70,5,M,,,,*2F
$GPGLL,4907.596,N,12312.475,W,121536,A*3F
$GPVTG,295,T,295,M,06.4,N,11.8,K*44
$GPZDA,121536,30,06,2000,07,00*4A
$GPGGA,121538,4907.598,N,12312.480,W,2,05,1.70,5,M,,,,*25
$GPGLL,4907.598,N,12312.480,W,121538,A*35
$GPVTG,295,T,295,M,06.4,N,11.8,K*44
$GPZDA,121538,30,06,2000,07,00*44

ENSEMBLE  1795 PCTIME 1894264
$GPGGA,121540,4907.599,N,12312.485,W,2,05,1.70,5,M,,,,*2E
$GPGLL,4907.599,N,12312.485,W,121540,A*3E
$GPVTG,294,T,294,M,06.4,N,11.8,K*44
$GPZDA,121540,30,06,2000,07,00*4B
$GPGGA,121542,4907.601,N,12312.489,W,2,05,1.70,4,M,,,,*23
$GPGLL,4907.601,N,12312.489,W,121542,A*32
$GPVTG,295,T,295,M,06.4,N,11.8,K*44
$GPZDA,121542,30,06,2000,07,00*49
$GPGGA,121544,4907.602,N,12312.494,W,2,05,1.70,4,M,,,,*2A
$GPGLL,4907.602,N,12312.494,W,121544,A*3B
$GPVTG,294,T,294,M,06.4,N,11.8,K*44
$GPZDA,121544,30,06,2000,07,00*4F
$GPGGA,121546,4907.604,N,12312.499,W,2,05,1.70,4,M,,,,*23
$GPGLL,4907.604,N,12312.499,W,121546,A*32
$GPVTG,294,T,294,M,06.4,N,11.8,K*44
$GPZDA,121546,30,06,2000,07,00*4D

ENSEMBLE  1796 PCTIME 1895050
$GPGGA,121548,4907.606,N,12312.504,W,2,05,1.70,4,M,,,,*2A
$GPGLL,4907.606,N,12312.504,W,121548,A*3B
$GPVTG,294,T,294,M,06.4,N,11.8,K*44
$GPZDA,121548,30,06,2000,07,00*43
$GPGGA,121550,4907.607,N,12312.509,W,2,05,1.70,4,M,,,,*2F
$GPGLL,4907.607,N,12312.509,W,121550,A*3E
$GPVTG,295,T,295,M,06.4,N,11.8,K*44
$GPZDA,121550,30,06,2000,07,00*4A
$GPGGA,121552,4907.609,N,12312.514,W,2,05,1.70,4,M,,,,*2F
$GPGLL,4907.609,N,12312.514,W,121552,A*3E
$GPVTG,294,T,294,M,06.4,N,11.8,K*44
$GPZDA,121552,30,06,2000,07,00*48
$GPGGA,121554,4907.610,N,12312.519,W,2,05,1.70,4,M,,,,*2C
$GPGLL,4907.610,N,12312.519,W,121554,A*3D
$GPVTG,295,T,295,M,06.4,N,11.8,K*44
$GPZDA,121554,30,06,2000,07,00*4E

ENSEMBLE  1797 PCTIME 1895835
$GPGGA,121556,4907.612,N,12312.524,W,2,05,1.70,4,M,,,,*22
$GPGLL,4907.612,N,12312.524,W,121556,A*33
$GPVTG,295,T,295,M,06.4,N,11.8,K*44
$GPZDA,121556,30,06,2000,07,00*4C
$GPGGA,121558,4907.613,N,12312.528,W,2,05,1.70,4,M,,,,*21
$GPGLL,4907.613,N,12312.528,W,121558,A*30
$GPVTG,296,T,296,M,06.4,N,11.8,K*44
$GPZDA,121558,30,06,2000,07,00*42
$GPGGA,121600,4907.615,N,12312.533,W,2,05,1.70,4,M,,,,*23
$GPGLL,4907.615,N,12312.533,W,121600,A*32
$GPVTG,296,T,296,M,06.4,N,11.8,K*44
$GPZDA,121600,30,06,2000,07,00*4C
$GPGGA,121602,4907.617,N,12312.538,W,2,05,1.70,4,M,,,,*28
$GPGLL,4907.617,N,12312.538,W,121602,A*39
$GPVTG,296,T,296,M,06.4,N,11.8,K*44
$GPZDA,121602,30,06,2000,07,00*4E

ENSEMBLE  1798 PCTIME 1896626
$GPGGA,121604,4907.618,N,12312.543,W,2,05,1.70,4,M,,,,*2D
$GPGLL,4907.618,N,12312.543,W,121604,A*3C
$GPVTG,296,T,296,M,06.4,N,11.8,K*44
$GPZDA,121604,30,06,2000,07,00*48
$GPGGA,121606,4907.620,N,12312.548,W,2,05,1.70,4,M,,,,*2F
$GPGLL,4907.620,N,12312.548,W,121606,A*3E
$GPVTG,296,T,296,M,06.3,N,11.6,K*4D
$GPZDA,121606,30,06,2000,07,00*4A
$GPGGA,121608,4907.621,N,12312.552,W,2,05,1.70,4,M,,,,*2B
$GPGLL,4907.621,N,12312.552,W,121608,A*3A
$GPVTG,296,T,296,M,06.3,N,11.6,K*4D
$GPZDA,121608,30,06,2000,07,00*44
$GPGGA,121610,4907.623,N,12312.557,W,2,05,1.70,4,M,,,,*25
$GPGLL,4907.623,N,12312.557,W,121610,A*34
$GPVTG,298,T,298,M,06.3,N,11.6,K*4D
$GPZDA,121610,30,06,2000,07,00*4D

ENSEMBLE  1799 PCTIME 1897417
$GPGGA,121612,4907.625,N,12312.562,W,2,05,1.70,4,M,,,,*27
$GPGLL,4907.625,N,12312.562,W,121612,A*36
$GPVTG,299,T,299,M,06.3,N,11.6,K*4D
